id,name,lat,lon
6418e18193265b732218702b,Teriberka,69.2049,35.0904
6418e07c93265b0857183967,Flotskiy,60.1641,29.1404
609afc322df0fb061b8e944e,Swan Lake,55.253549,20.92434
609afb52407373e486b09c28,Lesnoe,55.030504,20.6317
609afa9a77e94f3e5ff2aced,Zelenogradsk - Sambeach,54.964794,20.48125
6099d216b383c40e6d442ebe,Zelenogradsk- Mistel,54.955006,20.45211
6095c962a5cc0438737f79fe,Malinovka - Banka,54.953534,20.44736
6095c0f464b580b064314e68,Malinovka,54.952407,20.44203
609afd04b1c587101eefb7b8,Sokolniki,54.945049,20.40995
6095c032763daf03f68c472b,Kulikovo,54.937482,20.3562
6095bb59e21841c7bcc68bae,Zaostrovie,54.9619,20.27381
6095bf57e218417c4ac68bb4,Pionerskie,54.956787,20.22333
6418e62ae072f85c550392a6,ZSpot,54.9461364,20.14284
6418e50d9702727431883af0,Donskoe,54.938874,19.95898
609afea077e94fe077f2acf3,Baltiysk,54.649084,19.87569
6026e98876fdd97f919ce405,Melnrage,55.7307,21.0842
6026eab2b45155610079f501,Preila,55.3778,21.0306
6418e136970272d5a7876929,Nida,55.307,20.9767
584204214e65fad6a7709c97,Palmu Uzava,57.247,21.412
584204214e65fad6a7709c9a,Pavilosta,56.892,21.176
584204214e65fad6a7709c9b,Palmu Licis,56.561,21.001
6418e12fa34c337c0e185187,Pape,56.156,21.0223
6418e13de072f8dac60282f0,Ristna,58.9371,22.0502
6418e1446478f0342bfa7f88,Vääna-Jõesuu,59.4248,24.3402
6418e267970272aa2f87aa1a,Stroomi Beach,59.4423,24.6838
584204214e65fad6a7709c89,Sarkiniemi,60.145,24.872
584204214e65fad6a7709c8b,Padva Beach,59.962,22.848
584204214e65fad6a7709c8a,Tulliniemi,59.82,22.921
584204214e65fad6a7709c7c,Salusand,63.457,19.267
584204214e65fad6a7709c7a,Smitingen,62.598,18.033
584204214e65fad6a7709c7e,Gaddviken,62.436,17.611
6418e0d9e072f87c73026ed1,Lillsnäck Point,64.7904,21.1265
6418e0df97027235b68757bb,Sikhjalma,60.5795,17.8007
6418e0cde072f87427026c1a,Vaddo,59.9912,18.9125
584204214e65fad6a7709c80,Toro Stenstrand,58.799,17.809
6418e21e970272e4f8879ad4,Degersand,60.1538,19.5956
6418e0c69a43c44a0337d700,Kappelhamnsviken,57.93,18.7386
6418e0b4a34c33e6ba1837a9,Hogklint,57.6011,18.2102
6418e0baa34c338e6f1838e2,Faro Island,57.9081,19.2004
6418e0aea34c33044718366f,Tofta,57.4891,18.1234
584204214e65fad6a7709c7f,Angjarnsudden,57.27,17.057
6418e0a09a43c42a4937cfe6,Haga Park,56.5344,16.3813
6418e09be072f8581e02618e,Gronhogen,56.263,16.4005
584204214e65fad6a7709c81,Vik,55.64,14.279
6418e0a6a34c33454f183516,Melbystrand,56.5156,12.8978
6418e2e96478f0dbc8fad7e5,Långasand,56.8317,12.5945
6418e09593265b5a78183f2b,Glommen,56.9237,12.3506
6418e0d39702723699875528,Mölle,56.2844,12.4913
584204214e65fad6a7709c82,Brantevik,55.519,14.348
584204214e65fad6a7709c83,Nexo Harbor,55.065,15.138
6418e0c06478f0023afa6363,Kåseberga,55.3842,14.0671
6418e08fe072f8dad3025efe,Traslovslage,57.0501,12.2644
6418e088a34c33346f182e63,Apelviken,57.0822,12.2544
6418e08293265b4528183abe,Asa,57.3389,12.0919
584204204e65fad6a77095b1,Skagen,57.74195,10.53885
584204204e65fad6a77095b4,Hirtshals,57.592946,9.950746
584204204e65fad6a77095b2,Loekken,57.37262,9.70508
640b9a4de920305adde1073a,Sletteststrand,57.1567,9.3634
640b9a59de81d51d560d896a,Tangkrogen,56.1371,10.2104
640b9a2f9b6fab6a312fbe97,Gislövs  Strand,55.3522,13.24
640b9a3b451905182bdfdcd3,Grønnestrand,57.1425,9.2628
584204204e65fad6a77095b5,Hanstholm,57.12435,8.63219
584204204e65fad6a77095b7,Klitmoller Bunker,57.039368,8.465817
640b9a239b6fab6ce22fbbd9,Bunkers,57.0145,8.4415
584204204e65fad6a77095b8,Norre Vorupor,56.960781,8.36638
584204204e65fad6a77095b9,Agger,56.723441,8.218462
640b9a65e9203045cfe10d46,Thyborøn,56.6932037,8.19599
640b9a2a8284fe7259b0d71f,Thorsminde,56.3907,8.1103
584204204e65fad6a77095bb,Hvide Sande,56.000332,8.10917
640b9a35e9203088e1e10213,Grærup Strand,55.65,8.1333
640b9a41b6d7690ac19460c9,Rindby Strand,55.4167,8.375
584204204e65fad6a77095b3,Bonnerup/Djurslands,56.534909,10.718046
640b9a47451905b32ddfdf85,Bjerge Nordstrand,55.5869,11.1501
640b9a534878eb0a451d969a,Havnebyen,55.9709,11.3711
584204204e65fad6a77095bf,Hundested strand,55.96757,11.84655
584204204e65fad6a77095be,Raageleje,56.0993,12.1597
584204204e65fad6a77095bc,Smidstrup strand,56.1205,12.2348
584204204e65fad6a77095c0,Gilleleje havn,56.12863,12.30512
640b9a5f4878eb27571d99dc,Hornbaek,56.0952,12.4604
584204204e65fad6a77095c1,Hav Stokken,55.50701,12.2172
584204204e65fad6a77095c4,The church,55.27909,12.4466
584204204e65fad6a77095c5,Rodvig,55.2525,12.378
640b9a6c4878eb17711d9cf2,Møns Klint,54.96561,12.55316
584204204e65fad6a77095cf,Damp,54.58616,10.02849
584204204e65fad6a77095d4,Lippe-Hohwachter Bucht,54.326261,10.66554
584204204e65fad6a77095d1,Weissenhaus,54.313487,10.792128
584204204e65fad6a77095d6,Dazendorf,54.37021,10.911298
584204204e65fad6a77095d5,Fehmarn Westermarkelsdorf,54.52517,11.046224
584204204e65fad6a77095d7,Fehmarn Staberhuk,54.4013,11.313444
584204204e65fad6a77095da,Kuhlungsborn,54.154098,11.74121
584204204e65fad6a77095d8,Dahme Seebrucke,54.2209,11.091749
584204204e65fad6a77095d9,Timmendorfer Strand,53.999629,10.78471
584204204e65fad6a77095db,Warnemunde,54.182128,12.07702
584204204e65fad6a77095dc,Dierhagen-Neuhaus,54.284077,12.30954
584204204e65fad6a77095de,Wustrow,54.349597,12.37494
63225cf23a522d5b9ab8b161,Palikpoint,54.187861,15.55658
584204214e65fad6a7709cb1,Dabki,54.38,16.311
584204214e65fad6a7709cb4,Leba,54.769,17.543
6418e188e072f805d0029339,Faleza,54.8345,18.3299
584204214e65fad6a7709cb0,Wladyslawowo,54.801,18.408
584204214e65fad6a7709cb3,Rurociag,54.793,18.425
584204214e65fad6a7709cb5,Chalupy,54.769,18.492
6418e1cfa34c33da3b187434,Górki Zachodnie,54.3715,18.7704
6418e18e6478f02040fa8ef0,Sobieszewo,54.3474,18.9168
6418e197e072f8594802960d,Sztutowo,54.351,19.1698
6418e19d93265bd465187563,Piaski,54.441,19.6022
584204204e65fad6a77095ba,Borsmose,55.673429,8.137993
584204204e65fad6a77095bd,Vejers Strand,55.62507,8.11191
584204204e65fad6a77095cc,Borkum,53.61083,6.68482
640b99ea8284fe6131b0c764,Billriff,53.668,6.877
584204204e65fad6a77095cd,Juist,53.68276,6.97083
584204204e65fad6a77095ce,Norderney,53.7245,7.19404
640b99d24878eb15f11d7772,Weisse Düne,53.7242,7.2058
640b99e4de81d5480e0d6d78,Nordstrand,53.7218,7.2721
584204204e65fad6a77095cb,Baltrum,53.7358,7.38144
584204204e65fad6a77095ca,Langeoog,53.75341,7.472157
640b99cbe92030f38ee0e85c,Spiekeroog,53.782,7.7223
584204204e65fad6a77095c8,Wangerooge,53.79589,7.8987
584204204e65fad6a77095c7,Heligoland,54.18936,7.878307
584204204e65fad6a77095c9,Sankt Peter-Ording,54.31315,8.57599
584204204e65fad6a77095c6,Westerland Sylt,54.910652,8.29521
640b9a724878eb6ede1d9e3f,Juvre,55.1833,8.5
640b99f1606c457157f3ba32,Fehmarn Altenteil,54.532011,11.07673
640b99fc8284fe1772b0cb15,Fehmarn Gold,54.426464,11.09861
640b99f6de81d557740d715f,Fehmarn Südstrand,54.410074,11.20668
640b99d84878eb22911d78f3,Binz / Rügen,54.4059,13.6073
640b99ddb6d7691212944848,Boddenstraße,54.3025,13.716
640b96b0de81d56ccc0cbb06,Kobbeduinen,53.5072,6.3094
640b96e1e920307fe7e04676,Oosterstrand,53.5067,6.2551
640b9680b6d76971c0938beb,Schiermonnikoog,53.5044,6.208
640b96e7de81d52aba0cc669,Westerstrand,53.477,6.1309
640b96a4606c4578b2f30337,Het Hen,53.4667,5.9333
640b9686e92030966be03143,Ameland,53.4597,5.7579
640b96f8e920302d9ce04b32,De Vliegende Hollander,53.418014,5.31342
584204204e65fad6a77095df,Terschelling,53.41507,5.304193
640b96f2b6d769045493a5b8,Prullies Left,53.308722,5.06769
640b968c8284fe3ba3b00b22,Vlieland,53.3075,5.0656
584204204e65fad6a77095e1,Vlieland,53.26436,4.94179
640b96748284fef566b00533,Waddeneilanden,53.2241,4.7461
584204204e65fad6a77095e0,Texel,53.13168,4.7807
640b96cf9b6fab2a0a2f0045,Strandslag Huisduinen,52.95,4.7167
640b96c28284fe4c52b0176d,Strandslag Falga,52.9176,4.7131
640b96aa4878eb905b1cc86b,Strandslag Zandloper,52.906,4.7114
584204204e65fad6a77095e2,Julianadorp,52.89523,4.71021
640b96c84878eb1e451cce8c,Strandslag Drooghe Weert,52.8846,4.7094
640b96bc606c453a5cf30806,Strandslag Groote Keeten,52.8667,4.7
640b96d48284fe2de2b01b70,Strandslag Voordijk,52.8509,4.6957
584204204e65fad6a77095e3,Callantsoog,52.83821,4.68687
640b96b6b6d769310393995b,Strandslag Abbestee,52.8321,4.6875
640b96db606c454994f30ecb,Sint Maartenszee,52.7966,4.6712
584204204e65fad6a77095e4,Petten,52.76852,4.65327
584204204e65fad6a77095e5,Camperduin,52.72711,4.63725
584204204e65fad6a77095e6,Hargen,52.715136,4.635194
584204204e65fad6a77095e7,Bergen aan Zee,52.660803,4.6239
584204204e65fad6a77095e8,Egmond aan Zee,52.62324,4.61565
584204204e65fad6a77095e9,Castricum aan Zee,52.557406,4.603792
584204204e65fad6a77095ea,Wijk Aan Zee/Noordpier,52.47256,4.55773
584204204e65fad6a77095eb,Zandvoort,52.37133,4.51953
584204204e65fad6a77095ec,Langevelderslag,52.30455,4.4737
584204204e65fad6a77095ed,Noordwijk,52.2494,4.42795
584204204e65fad6a77095ef,Katwijk aan Zee,52.20636,4.38918
584204204e65fad6a77095ee,Wassenaar,52.15655,4.33412
584204204e65fad6a77095f0,Scheveningen,52.11308,4.27183
584204204e65fad6a77095f4,Kijkduin,52.06916,4.21331
584204204e65fad6a77095f3,Ter Heijde,52.03305,4.15956
584204204e65fad6a77095f5,S'Gravenzande,52.01553,4.132653
640b96ed4878eb8b251cd655,Vlugtenburg,52.0040442,4.1245
584204204e65fad6a77095f2,Hoek van Holland,51.99139,4.09828
640b96924878eb33f91cc2a4,Blokken,51.9533,4.0123
584204204e65fad6a77095f6,Maasvlakte,51.94281,3.99988
640b967ade81d57ea20cadbd,Slufter,51.9306,3.9898
584204204e65fad6a77095f8,Ouddorp,51.8305,3.90319
584204204e65fad6a77095f7,Renesse,51.73955,3.71604
640b9699b6d76916219392ae,Schouwen Duiveland,51.7297,3.6923
584204204e65fad6a77095f9,Domburg,51.56766,3.49056
584204204e65fad6a77095fb,Dishoek,51.4891,3.498379
640b969fb6d7691c96939475,Vlissingen,51.4528,3.5416
584204204e65fad6a77095fa,Cadzand,51.3697,3.36841
640b970ab6d76928fa93aac0,De Panne,51.1008,2.5812
584204204e65fad6a7709608,Oostduinkerke,51.137377,2.66377
640b9a024519058f3bdfce2d,Groenendijk Strand,51.15,2.7
584204204e65fad6a7709609,Nieuwpoort,51.15507,2.714193
584204204e65fad6a7709607,Westende,51.168606,2.75655
584204204e65fad6a7709606,Middelkerke,51.189911,2.80633
584204204e65fad6a7709605,Raversijde,51.20193,2.83914
584204204e65fad6a7709604,Ollie's Point,51.21865,2.87465
584204204e65fad6a7709603,Mariakerke,51.223697,2.88283
584204204e65fad6a7709602,Oostende,51.228303,2.88923
640b9704606c45de6df316f9,T'ooster,51.2395,2.927
584204204e65fad6a7709601,Bredene,51.249555,2.94987
584204204e65fad6a7709600,De Haan,51.28129,3.031298
584204204e65fad6a77095ff,Blankenberge,51.32112,3.13466
584204204e65fad6a77095fe,Zeebrugge,51.3333,3.166875
584204204e65fad6a77095fd,Knokke-Heist,51.349638,3.240452
640b96fe4519055bfadf2515,Surfers Paradise,51.3527,3.2545
640b9710de81d52b200ccef8,Albertstrand,51.3526,3.2827
6418e04a970272093b873860,Calais,50.9787,1.8958
6418e050e072f80237025207,Cap Gris-Nez,50.8708,1.5906
6418e0576478f04331fa4eed,Wimereux,50.7646,1.5945
6418e2e393265bd05e18b9e4,Plage des Bains,50.7333,1.5833
6418e2f693265b6fc018be43,Plage de Fort-Mahon,50.3333,1.55
6418e6669702728744888654,Pourville-sur-Mer,49.917703,1.0306
6418dcc39702727ef286792b,Petites Dalles,49.8256,0.5232
6418dcbda34c33836e1761ad,Yport,49.7415,0.3063
6425a9b0d92eccf4628b0826,Vaucottes,49.7382,0.2901
6418dbd9a34c33d1a31731ab,Etretat,49.7075,0.1984
6418dcb7a34c3367eb176067,Sainte Adresse,49.4964,0.0903
6418dc8be072f8706a018539,Trouville,49.3734,0.0724
6418e254a34c333761188f84,Luc-sur-Mer,49.319,-0.3497
6418e2726478f02385fabfc0,Gold Beach,49.3459,-0.5319
6418e25b97027266d487a78f,Omaha Beach,49.3684,-0.8719
6418e2619702720f8587a8ca,Utah Beach,49.416,-1.1746
584204204e65fad6a7709038,Anse du Brick,49.67,-1.489
6418e33a9a43c4a79f385bb1,Mondrée,49.6931,-1.4514
6418e3346478f006f1fae753,Plage de Bretteville,49.6549,-1.533
584204204e65fad6a770903a,Collignon,49.659,-1.569
584204204e65fad6a7709039,Biville,49.609,-1.849
640f1430d19c66574e71a0b9,Platte Saline,49.7211,-2.2125
584204204e65fad6a770903c,Siouville,49.568,-1.851
584204204e65fad6a770903b,Dielette,49.559,-1.863
584204204e65fad6a770903e,Sciotot,49.503,-1.855
584204204e65fad6a770903d,Le Rozel,49.482,-1.852
6418e0649a43c487fd37c388,Surtainville,49.457,-1.8331
584204204e65fad6a7709040,Baubigny,49.429,-1.83
6418dcc993265b4e11177198,Hatainville,49.4016,-1.8267
663d10e611c0d27a1e3ad329,Plage de Denneville,49.29943690669655,-1.69884
584204204e65fad6a7709042,Le Sillon,48.67,-2.005
584204204e65fad6a7709043,Longchamps,48.641,-2.125
584204204e65fad6a7709041,Cap Frehel,48.657,-2.362
6418e44493265bdfea1905b1,Trestel,48.824229,-3.35416
584204204e65fad6a7709044,Trestraou,48.817,-3.455
584204204e65fad6a7709045,Locquirec,48.699,-3.65
584204204e65fad6a7709046,Dossen,48.697,-4.071
584204204e65fad6a7709047,La Mauvaise Greve,48.694,-4.088
6418e1af970272d6198783c4,Les Amiets,48.6958,-4.1406
6425aab098e523190d08a137,Boutrouilles,48.6589,-4.4022
584204204e65fad6a7709048,Kerlouan,48.66,-4.404
6418dc9d9a43c4733336f654,St Pabu,48.5788,-4.6316
6418dbd293265bffca173e60,Lampaul Ploudalmezeau,48.57,-4.65
584204204e65fad6a7709049,Penfoul,48.534,-4.755
584204204e65fad6a770904a,Le Gouerou,48.458,-4.773
584204204e65fad6a770904c,Les Blancs Sablons,48.37,-4.77
6418dc85e072f8d7a10183f6,Fouesnou,47.9691,-4.4455
584204204e65fad6a7709003,Porsmilin,48.354,-4.679
584204204e65fad6a7709004,Dalbos,48.341,-4.634
584204204e65fad6a7709007,Le Petit Minou,48.337,-4.618
584204204e65fad6a7709008,Anse de Pen Hat,48.273,-4.623
584204204e65fad6a7709005,Kerloch,48.252,-4.56
584204204e65fad6a7709006,Pointe de Dinan,48.23,-4.572
584204204e65fad6a7709009,La Palue,48.203,-4.562
584204204e65fad6a770900a,Cap de la Chevre,48.168,-4.559
584204204e65fad6a770900d,Pors Theolen,48.063,-4.673
584204204e65fad6a7709010,Saint Tugen,48.012,-4.597
584204204e65fad6a770900e,Baie des Trepasses,48.047,-4.711
584204204e65fad6a770900f,Pointe de Lervily,48,-4.558
584204204e65fad6a7709013,La Gamelle,48.008,-4.547
584204204e65fad6a7709012,Gwendrez,47.991,-4.482
5842041f4e65fad6a7708c8b,La Torche,47.84083333,-4.35083
584204204e65fad6a770900b,Les Roches Blanches,48.109,-4.362
584204204e65fad6a770900c,Pors ar Vag,48.173,-4.306
584204204e65fad6a7709015,Pors Carn,47.832,-4.355
584204204e65fad6a7709014,Lesconil,47.796,-4.208
584204204e65fad6a7709016,Le Kerou,47.767,-3.564
584204204e65fad6a7709017,Guidel,47.754,-3.515
584204204e65fad6a7709019,Kaolins,47.724,-3.493
584204204e65fad6a770901c,Toulhars,47.707,-3.377
6418dcac9a43c4047236f8f1,Gavres,47.6937,-3.3247
584204204e65fad6a770901b,Etel,47.637,-3.208
6418e12a9a43c4af6537ebf7,Penthièvre,47.584,-3.1466
584204204e65fad6a770901a,Cote Sauvage,47.521,-3.156
584204204e65fad6a770901e,Donnant,47.326,-3.242
64bbf9a2047a15a09820dea7,La Govelle,47.266726,-2.45578
6418e346a34c3333ba18c13d,Plage de la Baule,47.2697,-2.35
6418e1249702725a2e87656b,La Courance,47.2424,-2.3156
6418e11e6478f0760afa776f,L'Ermitage,47.2053,-2.1638
6418e11693265b6c251859fe,Gohaud,47.1612,-2.1733
6418e10ba34c33ae7f184a9d,Noirmoutier,46.9438,-2.1895
6418e1109a43c4fc3a37e772,St jean de monts,46.7738,-2.0606
6418e51893265b925c19345f,Sable Rouis,46.7059662,-2.38097
6418e5126478f05ba8fb4e40,Cantin,46.7349477,-2.37277
584204204e65fad6a770901d,Saint Gilles Croix de Vie,46.687,-1.942
584204204e65fad6a770901f,La Sauzaie,46.636,-1.894
584204204e65fad6a7709020,Les Dunes,46.606,-1.858
584204204e65fad6a770902b,Sauveterre,46.548,-1.833
584204204e65fad6a7709021,L' Aubraie,46.515,-1.824
5938479afb94bc0014bcd941,Les Sables-D'Olonne,46.494315330871906,-1.78352
6418dcb1e072f86444018d52,Saint-Nicolas,46.4358,-1.6957
584204204e65fad6a7709023,Bud Bud,46.3833,-1.49088
6418e0ece072f833cc0272ac,Le Lizay,46.2564,-1.5163
6322620edf69840d7fb59082,La Pointe du Grignon,46.201938293845195,-1.53461
6418e0e56478f0959efa6c02,Gouillaud,46.1673,-1.3742
6418dca5a34c33b3fe175cd1,St-Denis,46.0394,-1.3685
584204204e65fad6a7709025,Chassiron,46.049,-1.42
584204204e65fad6a7709026,Les Huttes,46.006,-1.407
6418e389970272a61287e6e7,Plage des Sables Vigniers,45.9619,-1.3863
6418e34093265bbedf18cdda,La Flotte,46.1873,-1.3175
584204204e65fad6a7709022,Les Boulassiers,46.02,-1.327
6418e10593265b106818568e,Les Allassins,45.8714,-1.266
584204204e65fad6a7709029,Grand Village,45.85,-1.263
584204204e65fad6a7709028,Saint Trojan,45.836,-1.26
6418e0fe9a43c476f837e338,La Côte Sauvage,45.7116,-1.2404
584204204e65fad6a7709027,Phare de la Coubre,45.694,-1.238
6418e320e072f8f7c302e951,La Grande Cote,45.6593,-1.1338
584204204e65fad6a770902c,Pontaillac,45.625,-1.054
584204204e65fad6a770902a,Le Verdon,45.567,-1.092
6418e31b970272810687ceb0,Plage des Nonnes,45.561,-0.966
584204204e65fad6a770902e,Soulac,45.517,-1.133
584204204e65fad6a770902d,L'Amelie,45.485,-1.153
584204204e65fad6a770902f,Le Gurp,45.434,-1.156
584204204e65fad6a7709030,Montalivet,45.378,-1.162
584204204e65fad6a7709031,Le Pin Sec,45.269,-1.17
584204204e65fad6a7709032,Hourtin Plage,45.224,-1.176
6425ab1598e523222a08ba03,Le Crohot des Cavales,45.1147,-1.1902
6425aaefd92ecc60968b5070,L'Horizon,44.6384,-1.2648
6425ab6298e5231aae08cb33,La Pointe,44.6209,-1.2456
584204204e65fad6a7709034,Carcans,45.083,-1.195
5842041f4e65fad6a7708c8d,Lacanau,45.00222222,-1.2025
584204204e65fad6a7708fe2,Le Porge,44.894,-1.222
584204204e65fad6a7708fe3,La Jenny,44.858,-1.227
584204204e65fad6a7708fe4,Le Grand Crohot,44.799,-1.238
584204204e65fad6a7708fe5,Le Truc Vert,44.716,-1.254
584204204e65fad6a7708fe6,Le Petit Train,44.657,-1.261
584204204e65fad6a7708fe7,Cap Ferret,44.638,-1.265
584204204e65fad6a7708fe8,Cap Ferret Chenal,44.622,-1.258
6418e0f89702724989875c99,La Salie,44.5149,-1.2579
584204204e65fad6a7708fd8,Biscarrosse-Plage,44.445,-1.26
584204204e65fad6a7708fd9,Mimizan-Plage,44.216,-1.301
584204204e65fad6a7708fe9,Lespecier-Plage,44.165,-1.311
584204204e65fad6a7708fda,Contis-Plage,44.093,-1.329
584204204e65fad6a7708fdb,Cap de l'Homy-Plage,44.04,-1.344
584204204e65fad6a7708fdc,Saint-Girons-Plage,43.956,-1.367
584204204e65fad6a7708fdd,Moliets-Plage,43.858,-1.395
6418df9393265b77d3180ad5,Messanges,43.8162,-1.4057
584204204e65fad6a7708fde,Vieux Boucau,43.794,-1.417
584204204e65fad6a7708fdf,Les Casernes,43.725,-1.435
584204204e65fad6a7708fea,Le Penon,43.711,-1.44
584204204e65fad6a7708fe0,Les Bourdaines,43.699,-1.441
584204204e65fad6a7708feb,Les Estagnots,43.686,-1.444
5842041f4e65fad6a7708bc8,Les Culs Nuls,43.68220203786759,-1.44167
584204204e65fad6a7708fec,La Nord,43.665,-1.446
5842041f4e65fad6a7708c8e,La Graviere,43.66388889,-1.44389
584204204e65fad6a7708fed,La Sud,43.66,-1.447
584204204e65fad6a7708fee,L'Estacade,43.653,-1.446
584204204e65fad6a7708fef,Le Prevent,43.651,-1.447
5842041f4e65fad6a7708bcd,Le Santocha,43.64760422014503,-1.44721
584204204e65fad6a7708ff0,Capbreton,43.643,-1.448
584204204e65fad6a7708ff2,Labenne-Ocean,43.6,-1.474
584204204e65fad6a7708fe1,Ondres-Plage,43.578,-1.49
584204204e65fad6a7708ff3,Tarnos-Plage,43.558,-1.504
584204204e65fad6a7708ff1,La Barre,43.527,-1.529
5842041f4e65fad6a7708c8f,Les Cavaliers,43.5225,-1.52583
5842041f4e65fad6a7708bce,Anglet,43.51401611768647,-1.53382
60520d19e8c6499aad635efe,La Madrague,43.512,-1.5366
6425abdf4d6ed34e083d583a,Les Corsaires,43.5072,-1.5398
584204204e65fad6a7708ff4,Marinella,43.506,-1.54
584204204e65fad6a7708ff5,Sables D'or,43.502,-1.544
584204204e65fad6a7708ff6,Le Club,43.5,-1.546
584204204e65fad6a7708ff7,Chambre d'Amour,43.496,-1.548
6425cfc00f32d5d8b9e2b9c1,Le VVF,43.4953,-1.5485
5842041f4e65fad6a7708bca,Biarritz,43.48469485823068,-1.56023
5842041f4e65fad6a7708bcf,La Cote des Basques,43.479,-1.569
584204204e65fad6a7708ff8,Ilbaritz,43.455,-1.586
584204204e65fad6a7708ff9,Erretegia,43.445,-1.595
584204204e65fad6a7708ffa,Bidart,43.438,-1.599
584204204e65fad6a7708ffd,Parlementia,43.431,-1.61
584204204e65fad6a7708ffb,Les Alcyons,43.427,-1.611
584204204e65fad6a7708ffc,Avalanche,43.428,-1.616
6418dc7fe072f893790182d3,Guethary,43.4225,-1.6197
584204204e65fad6a7708ffe,Plage de Mayarko,43.419,-1.628
5842041f4e65fad6a7708c8c,Lafitenia,43.41611111,-1.62833
584204204e65fad6a7708fff,Erromardie,43.412,-1.64
584204204e65fad6a7709000,Sainte Barbe,43.399,-1.667
6418dc9793265b2c731767f7,Ciboure Socoa,43.3941,-1.6794
584204204e65fad6a7709002,Belharra,43.397,-1.749
584204204e65fad6a7709001,Hendaye,43.378,-1.764
5842041f4e65fad6a7708c83,Rodiles,43.53583333,-5.38583
640f7602326c171935696b3c,Playas de Mendia,43.3934,-4.5575
5842041f4e65fad6a7708e6f,Playa de Meron,43.403878,-4.3758
640f18ef38476e90c9cef5b1,Gerra,43.3987,-4.3592
640f18fa355469313eb8bc0a,Oyambre,43.3945,-4.3318
640f19326d5eccb8de548e0d,Playa de Santa Justa,43.4286,-4.0957
5842041f4e65fad6a7708e71,Los Locos,43.439,-4.048
5842041f4e65fad6a7708c84,Playa de los Caballos,43.44166667,-4.022777778
640f1927326c17645e54db90,Playa de Valdearnas,43.4474,-3.9789
640f1905d19c666e3b726e90,Liencres,43.4517,-3.9651
640f356343c1fb298443006c,Playa de la Concha,43.472,-3.7791
5842041f4e65fad6a7708e72,Santander (El Sardinero),43.477566,-3.77872
640f35587966c372c2694bff,Playa del Camello,43.4695,-3.7757
640f356f6d5ecc18a75a98dc,Playa Los Biquinis,43.4677,-3.7699
5842041f4e65fad6a7708e73,Playa de Somo,43.459768,-3.75133
640f357a3554698868bed224,Playa Los Peligros,43.4663,-3.7773
5842041f4e65fad6a7708e74,Santa Marina,43.470183,-3.73332
5842041f4e65fad6a7708c85,Isla de Santa Marina,43.46972222,-3.731388889
640f191074a71b74b822b6c2,Langre,43.4768,-3.6894
640f191b74a71b58c622b86b,Playa de Cuberris,43.4993,-3.6128
640f18d938476e81b5cef292,Playa de Cuarezo,43.4945,-3.5381
640f18ce355469b914b8b532,Playa de Noja,43.473,-3.5013
5842041f4e65fad6a7708e76,El Brusco,43.484152,-3.48152
640f18b974a71b2d3022a9b1,Berria,43.4659,-3.468
640f18c4d19c662c6372646c,Laredo,43.4186,-3.4332
640f18e4d19c66ccb37268cb,Playa San Julián,43.4128,-3.3704
6418e0f29a43c4867437e0d3,La Arena,43.3525,-3.1184
584204214e65fad6a7709bbc,Punta Galea,43.37,-3.038
6418e2b2970272484987b9d4,Ereaga,43.3441,-3.0132
6418e2a2a34c335e0a189f0f,Gorrondatxa,43.3802,-3.016
6418e27e6478f02820fac1e6,Playa Barinatxe,43.3832,-3.0064
5842041f4e65fad6a7708e75,Sopelana,43.390862,-3.00152
5842041f4e65fad6a7708c86,Menakoz,43.397,-2.98667
6418e40ee072f86c89031c3f,Plentzia,43.414,-2.945
5842041f4e65fad6a7708c87,Bakio,43.43388889,-2.80194
5842041f4e65fad6a7708c88,Mundaka,43.40861111,-2.69472
640f14d53554698076b80c99,Laga,43.4099,-2.658
640f14e038476e52e6ce4a30,Deba,43.3037,-2.3531
5842041f4e65fad6a7708e78,Orrua,43.3044,-2.2428
5842041f4e65fad6a7708c89,Roca Puta,43.30777778,-2.239444444
5842041f4e65fad6a7708b57,Zarautz,43.29,-2.1708
640f14f6d19c667b9a71c1e0,Ondarreta,43.3179,-2.0045
640f14eb326c17753d5428e7,Kontxa / La Concha,43.317,-1.9881
584204204e65fad6a77099be,La Zurriola,43.32722222,-1.97333
584204214e65fad6a7709c14,Canet Plage,42.7,3.039
584204214e65fad6a7709c16,Gruissan,43.096,3.114
584204214e65fad6a7709c15,La Guillotine,43.282,3.445
584204214e65fad6a7709c13,Paulilles,42.506,3.123
6418e2d19a43c4405338453c,Platja de Perafita,42.4601,3.1572
584204214e65fad6a7709c17,Sete,43.389,3.655
584204214e65fad6a7709c18,Palavas les Flots,43.528,3.936
584204214e65fad6a7709c1b,Carnon,43.54,3.973
584204214e65fad6a7709c19,Saintes-Maries,43.448,4.421
584204214e65fad6a7709c1e,Les Laurons,43.353,5.023
584204214e65fad6a7709c1a,La Couronne,43.327,5.059
584204214e65fad6a7709c1c,Tamaris,43.328,5.083
584204214e65fad6a7709c1d,La Corniche,43.328,5.118
584204214e65fad6a7709c1f,Le Rouet,43.334,5.175
6418e4b79702720a528827ad,Calanque de Figuiere,43.33015,5.21138
584204214e65fad6a7709c20,Le Prado,43.258,5.374
584204214e65fad6a7709c2d,Cassis,43.212,5.537
584204214e65fad6a7709c21,La Ciotat,43.182,5.615
584204214e65fad6a7709c24,Cap Saint-Louis,43.178,5.674
584204214e65fad6a7709c26,Bandol,43.132,5.748
6418dea7a34c332c6917cae0,La Coudoulière,43.0941,5.8051
584204214e65fad6a7709c23,Six Floors,43.094,5.811
584204214e65fad6a7709c25,Fabregas,43.069,5.872
584204214e65fad6a7709c27,Les Sablettes,43.078,5.892
6418deada34c332c1417ccea,Pin Rolland,43.0706,5.9066
6418e2789a43c4453b38338b,Plage du Larvotto,43.7466,7.434
584204214e65fad6a7709c2e,Eze,43.722,7.358
584204214e65fad6a7709c2c,Villefranche Sur Mer,43.67,7.321
584204214e65fad6a7709c2b,Nice,43.653,7.199
584204214e65fad6a7709c2a,La Tour,43.543,7.13
584204214e65fad6a7709c29,Cannes,43.536,7.041
6418e32ea34c3317ec18bc9b,Fréjus,43.4216,6.753
6418e3279a43c45d103857d6,Esclamandes,43.4029,6.7322
584204214e65fad6a7709c22,Galiote,43.397,6.732
6425abe13660c047ee2b64a8,Beauvallon,43.2908,6.6112
584204214e65fad6a7709c28,Gigaro,43.184,6.597
6418de8ea34c3358bb17c5f0,Lumio,42.5697,8.8039
6418e39497027253c387e974,Plage Bussaglia,42.2822,8.6875
6418de886478f0407ef9ed73,Algajola,42.6102,8.8712
6425abe54d6ed3cee13d5982,Ostriconi,42.6605,9.0586
6425abe33660c079542b651b,Farinole,42.7362,9.3439
6418e34ca34c33623e18c29a,Plage de Furiani,42.6584,9.4515
6425abe63660c0824d2b65fc,Sagone,42.1144,8.6905
6418de956478f007abf9efec,Capo di Feno,41.9351,8.622
6425d002d92eccdcc193a892,Route des Sanguinaires,41.9068,8.7054
6418e35ee072f8593002f6d7,Plage Du Trottel,41.9121,8.725
6418e365e072f87ce402f813,Plage du Ricanto,41.9269,8.7766
6418e2efe072f8645102def6,Plage d'Agosta,41.8588,8.7912
6418de9b9a43c45755376394,Figari,41.4492,9.0687
6418dea1e072f8730f01f800,Pinarellu,41.6888,9.3923
584204204e65fad6a7709b45,Santa Reparata,41.23,9.167
6418df259702721abf86fd8f,Rena Majore,41.1729,9.1682
6418e352e072f83f9102f348,li Cossi,41.0466,8.9356
584204204e65fad6a7709b46,Marinedda,41.017,8.885
6418e314a34c332df818b6b6,Isola Rossa,41.0093,8.8767
584204204e65fad6a7709b44,Badesi,40.98,8.856
584204204e65fad6a7709b48,Porto Ferro,40.684,8.203
584204204e65fad6a7709b49,La Maddalenetta,40.572,8.299
584204204e65fad6a7709b47,Silver Rock,40.751,8.155
584204204e65fad6a7709b4b,La Speranza,40.495,8.367
584204204e65fad6a7709b4a,Santa Caterina,40.103,8.489
584204204e65fad6a7709b4c,S'Archittu,40.087,8.491
584204204e65fad6a7709b4d,Sa Mesa Longa,40.049,8.398
584204204e65fad6a7709b4f,Mini Capo,40.029,8.392
584204204e65fad6a7709b4e,Piscinas,39.545,8.446
584204204e65fad6a7709b50,Capo Mannu,40.03,8.383
584204204e65fad6a7709b51,Scivu,39.489,8.405
584204204e65fad6a7709b52,Portixeddu,39.438,8.41
584204204e65fad6a7709b55,Buggerru,39.405,8.401
584204204e65fad6a7709b53,Goroneddu,39.252,8.399
6418e2dd9a43c45f4f384798,Spiaggia di Quartu,39.2232,9.1977
584204204e65fad6a7709b54,Maresciallo,39.109,8.364
6418e60b93265b2a90196a8f,Turri,38.965139,8.43744
6418e370970272db1087e1e5,Cala Ginepro,40.4425,9.7901
661f96d31f5fe470c4454408,CRS,41.905331,8.63008
603e92deda5563f2fad8ef98,Le Ruppione,41.8323,8.783
584204204e65fad6a7709b03,Sanremo,43.821,7.816
584204204e65fad6a7709b04,Bistrot,43.825,7.843
6418e3ac93265b906c18e5ea,La d'Oro,43.8762,8.021
584204204e65fad6a7709b05,Andora Liguria,43.95,8.153
584204204e65fad6a7709b06,Alassio,44.006,8.174
6425ac173660c080612b713e,Molo,44.0076,8.1759
584204204e65fad6a7709b0b,Albenga,44.041,8.223
584204204e65fad6a7709b09,Varazze,44.358,8.577
584204204e65fad6a7709b07,Arenzano,44.39,8.668
584204204e65fad6a7709b0a,Multedo,44.423,8.824
584204204e65fad6a7709b08,Capo Marina,44.391,8.956
584204204e65fad6a7709b0c,Bogliasco,44.377,9.069
584204204e65fad6a7709b0d,Recco,44.36,9.141
584204204e65fad6a7709b0f,Entella,44.31,9.331
584204204e65fad6a7709b0e,Moneglia,44.24,9.482
584204204e65fad6a7709b10,Levanto,44.17,9.607
584204204e65fad6a7709b11,Lerici,44.082,9.905
6418e4939a43c4807338a543,Fiuma il Bunker,44.0487661,9.994
6418e48de072f82b1f0337b0,La Goletta,44.0510333,10.00113
584204204e65fad6a7709b12,Marinella di Sarzana,44.048,10.002
584204204e65fad6a7709b13,Cinquale,43.978,10.139
584204204e65fad6a7709b14,Pontile,43.957,10.165
584204204e65fad6a7709b16,Bocchetta,43.862,10.233
584204204e65fad6a7709b15,Tito del Molo,43.864,10.24
6418e28a9a43c4dfd73836ca,Litorale di Pellestrina,45.2781,12.3039
6418e290e072f8319c02cae3,Litorale di Lido,45.3781,12.3473
6418e3596478f066f0faeefa,Cavallino,45.454,12.4982
6425ac193660c0c7a52b71c3,Pontile,45.6664,13.1147
584204204e65fad6a7709b27,Lignano Pineta,45.667,13.116
584204204e65fad6a7709b2d,Punta Sabbioni,45.425,12.437
584204204e65fad6a7709b28,Adria,44.561,12.283
584204204e65fad6a7709b2b,Carabiniere,44.54,12.281
584204204e65fad6a7709b2a,Lamone,44.526,12.28
584204204e65fad6a7709b2c,La Diga,44.485,12.289
6647888b14e5c524da1821cc,Madonnina,44.2151866,12.39151
584204204e65fad6a7709b2e,Rock Island,44.079,12.577
584204204e65fad6a7709b2f,Fiorenzuola,43.937,12.866
584204204e65fad6a7709b30,Lido,43.853,13.012
584204204e65fad6a7709b31,Cesano,43.748,13.177
584204204e65fad6a7709b33,La Nave,43.565,13.59
584204204e65fad6a7709b32,Portonovo,43.561,13.602
584204204e65fad6a7709b34,Sasso,43.532,13.622
584204204e65fad6a7709b35,Marina Palmense,43.161,13.812
584204204e65fad6a7709b36,Silvi Marina,42.54,14.135
59a5dab7806b8b00129837f9,Il Porto,42.460929743594036,14.23294
584204204e65fad6a7709b37,Saraceno,42.152,14.718
584204204e65fad6a7709b38,Capo Vieste,41.925,16.11
602474736179ae7448698553,Frigole,40.42679,18.2584
640b973445190597a6df30bf,San Stefano Beach,39.757697,19.64371
6418e4699a43c435e3389b56,Glyfada,39.5922,19.8073
640b972eb6d769d69493b2cb,Kontogialos Beach,39.584349,19.81881
640b97298284fe47c6b02d2b,Saint Gordios,39.54603,19.84972
640b9723b6d769d54693b052,Valtos Beach,39.2843,20.3897
584204214e65fad6a7709c4b,Kastro Point,39.284,20.396
584204214e65fad6a7709c49,Krioneri,39.282,20.405
584204214e65fad6a7709c4c,Ammoudia Left,39.238,20.48
584204214e65fad6a7709c4d,Loutsa,39.181,20.542
640b9717de81d5b9d70cd0d0,Lygia,39.147,20.5731
584204214e65fad6a7709c4e,Ligia Reef,39.129,20.589
584204214e65fad6a7709c4f,Stonebread,39.122,20.596
584204214e65fad6a7709c51,Kastrosikia,39.094,20.65
584204214e65fad6a7709c50,Shark Reef,38.983,20.707
640b971c606c458b62f31c89,Porto Katsiki,38.5989,20.5503
584204214e65fad6a7709c53,Lourdas Beach (Kefallonia),38.115,20.625
640b9760de81d5c99f0ce00b,Arkoudi,37.847,21.1078
60baa7edf0ac947f16f68912,Kalogria,38.164179,21.36412
584204214e65fad6a7709c52,Ammes Beach (Kefallonia),38.109,20.508
648ce126d9a58b710d506ab8,Kourouta Beach,37.768849,21.29386
640b979c9b6fab96ff2f2c0a,Kakovatos,37.4548,21.6395
584204214e65fad6a7709c54,Kalo Nero (Peloponnisos),37.295,21.693
584204214e65fad6a7709c56,Agrili (Peloponnisos),37.216,21.598
584204214e65fad6a7709c55,Lagkouvardos (Peloponnisos),37.09,21.582
6341b485a92a201bd7bca9d5,Mati,37.008640262700666,21.63552
584204214e65fad6a7709c57,Bouka (Peloponnisos),36.992,21.648
640b97788284fe5e41b03e1e,Voidokilia,36.9636,21.6627
645585c2e343fdfa177f251b,Kouloura,36.80700590749242,21.72142
640b97478284fe1540b03385,Krokala,36.8012,21.7383
640b9740de81d53e090cd920,Fenekounta,36.8079,21.8075
640b973b606c45908df322b3,Zagka,36.7827,21.9382
640b9753451905b38fdf379d,Rizomilos,36.8776,21.9252
640b9797de81d5c3d90cec02,Santova beach,36.9478,22.1448
640b978ade81d55d930ce92e,Ritsa beach,36.8945,22.2248
640b9791b6d769166a93c7d4,Akrogiali beach,36.9536,22.1446
640b974d9b6faba0fe2f1b47,Kardamyli,36.8892,22.2317
640b976c451905db75df3cc1,Agios Nicholas,36.8206,22.2868
640b97664878eb8df71cefe0,Oitylo,36.6967,22.3833
640b975a451905a780df38f8,Marmari,36.4259,22.4759
640b97728284fe1300b03ccd,Mavrovouni,36.7284,22.5533
63225df53a522d0f38b8ed0d,Shipwreck,36.788508,22.58295
640b977ede81d529720ce631,Pori,36.7208,23.0239
640b9784e920306858e068a4,Monemvasia,36.6309,23.0324
650486ea339af13015aaf6a2,Kleisidi Beach,36.34488,25.77643
648ce002f420ae6df5e1df5f,Simos beach,36.473933,22.97084
648ce0a959a14e49ea2fc582,Fragos Beach,36.466333,22.98025
640b9bab606c456323f420ab,Managhros,38.4648,25.9344
640b9b98451905ae1fe02cff,Alaçatı,38.2271,26.3604
640b9bbcde81d58efc0dda71,Patara,36.253,29.312
640b9bec606c458e6ef42ff1,Beymelek,36.258165,30.06677
640b9be69b6fab3d9a30235d,Hasyurt 75. yıl,36.315656,30.23027
640b9be04878eb14591df219,Kumluca Plaji,36.314384,30.27277
640b9bdae920306a6ae16295,Beykonak,36.310944,30.29387
640b9bd4de81d563440de01b,Şah Inn,36.299971,30.31976
640b9bce606c4572acf42931,Karaoz,36.274679,30.40801
640b9b93b6d769129694aeb2,Olympos Beach,36.4084,30.48
640b9b8c9b6fab47ba300f33,Kemer,36.6044,30.5667
640b9b86606c4529ebf41865,Antalya,36.8774,30.6649
640b9b9eb6d769a18894b14e,Kundu,36.8534,30.8871
640b9b80b6d769664994aa23,Side,36.765,31.3958
640b9b7a9b6fab645a300ad2,Alanya,36.5489,31.979
640b9ba58284fec2deb12e60,Damlatas,36.5443,31.9849
640b9bc3451905e9d7e036bf,Kahyalar,36.290369,32.27349
640b9bf2451905d5dfe04168,Mersin,36.730472,34.51358
640b9bc9606c459dc0f427e0,Gazipasa Halk Plaji,36.267002,32.27962
640b9bb6606c450efff42366,Mezili,36.7512,34.5496
640b9bb1606c45c17ef4220c,Samandag,36.0809,35.9454
584204214e65fad6a7709c8d,Chekka (Heri),34.311,35.714
640a5e1e99dd44c1b20a9b8d,Colonel,34.2439,35.6596
584204214e65fad6a7709c8e,Batroun,34.243,35.659
640a5e3545190544f9a41f4c,White Beach,34.2144985,35.64984
640a5e2299dd4441580a9c88,Pierre and Friends,34.2125,35.649
584204214e65fad6a7709c8c,Tam Tam Beach,34.114,35.648
584204214e65fad6a7709c90,Nahr Brahim,34.061,35.642
584204214e65fad6a7709c8f,Yours,34.013,35.634
640a5e2799dd44dc490a9d9c,Ramlet al Bayhda,33.8791,35.4792
584204214e65fad6a7709c92,Casinos,34.012,35.642
640a5e2c99dd44b2b40a9ebd,Damour,33.702,35.4378
584204214e65fad6a7709c91,Mustafas,33.666,35.417
640a5e31451905e242a41e53,Aabbasiyyeh,33.2942,35.22
58dd720e45792b001324d859,Betset Beach,33.08053879967027,35.10573
640a66a699dd4463e90c9a66,Achziv Beach,33.044378,35.10014
6050cd187206175b80080835,Sokolov Beach,33.0047,35.0864
640a66ac45190526f3a6194e,Shavei Tzion,32.9800691,35.07928
640a66914eb375590f9dbe14,Argaman Beach,32.9171,35.0796
640a667e99dd4467ab0c9195,Kiriat Yam,32.8537,35.0591
584204204e65fad6a7709139,Bat Galim,32.8376,34.982
640a6677606c4529b9b9fe18,Backdoor Haifa,32.8366,34.9816
584204204e65fad6a7709aa2,The Peak,32.807,34.955
584204204e65fad6a7709aa3,Nirvana Beach,32.796,34.955
640a6684e9203045c5a73a74,Kadarim,32.7955,34.9556
640a6699451905095aa61467,Atlit Beach,32.7095,34.9413
584204204e65fad6a7709aa4,Stalbeach,32.675,34.926
640a668b4519052578a61175,Nahsholim,32.6144,34.9156
640a667199dd4438060c8edf,Maagan Michael,32.5581,34.9068
584204214e65fad6a7709d04,Israel Rovercam,32.558,34.906
584204204e65fad6a7709aa6,Jisr az-zarqa,32.538,34.9
584204204e65fad6a7709aa5,Caesarea,32.529,34.899
584204204e65fad6a7709aa7,Sdot Yam,32.476,34.882
640a669f606c459780ba0701,Olga Beach,32.4393,34.8775
584204204e65fad6a7709aa8,Beit Yanai,32.391,34.862
584204204e65fad6a7709aab,Sironit Beach,32.323,34.846
584204204e65fad6a7709aa9,Argamans Beach,32.302,34.839
6050cbc86566772761b1a3df,Netanya,32.2736,34.8328
584204204e65fad6a7709aaa,Sidna Ali,32.188,34.803
584204214e65fad6a7709d03,Gazebbo Beach,32.178,34.801
584204204e65fad6a7709aac,Zvulun,32.176,34.8
584204204e65fad6a7709aad,Marina,32.166,34.795
584204204e65fad6a7709ab7,Dromi - Herzlyia Marina,32.156073,34.79196
584204204e65fad6a7709aaf,Hazuk Beach,32.144,34.79
640a665099dd44685c0c8778,Ha-Rama Beach,32.345,34.8529
640a665799dd44dd3d0c88df,Poleg Beach,32.2734,34.8329
5ff89a13956aa8cbc947c5aa,Marina Dan Acadia,32.167949,34.79758
600a0c4bf969dc0bde5a1dba,Tel Baruch North,32.1229,34.7834
584204204e65fad6a7709aae,Topsy,32.093,34.768
584204204e65fad6a770913b,Hilton Beach,32.089,34.7668
640a665d606c4534c5b9f814,Gordon Beach,32.08269,34.76706
5955788e31d48a00128db927,Manta Ray,32.0616279575,34.75955
584204204e65fad6a7709ab1,Dolphinarium,32.061,34.753
595579ac31d48a00128db928,Maaravi,32.0561359538,34.75484
584204204e65fad6a7709ab0,Bat Yam,32.015,34.735
584204204e65fad6a7709ab2,Rishon,32.003,34.73
584204204e65fad6a7709ab4,Palmachim,31.934,34.701
584204204e65fad6a7709ab5,Ashdod,31.815,34.637
584204204e65fad6a7709ab3,Hakshatot,31.799,34.629
640a6664e920308afda733a8,Nachal Yarkon St.,31.7881,34.6257
640a666a4519052553a60ab2,Foxes Point,31.695611,34.56792
58dd6fec45792b001324d858,Gute Beach,31.69472550210355,34.56702
584204204e65fad6a7709ab6,Ashkelon,31.674,34.548
584204204e65fad6a7709aa0,Zikim,31.612,34.503
640a5e9cb6d76991d058bb61,Gaza,31.5202,34.4284
6372a7a9e4553b6290851bbf,Eilat,29.54784,34.96444
640b9c104519050dc7e04888,Lara Bay,34.96,32.3115
640a7138e92030fdd7a993c6,Pomos,35.1643726,32.54456
640b9c1b4878eb45dd1dfffb,Toxeftra Beach,34.9213,32.3269
5b9065db3568aa0001d69dda,Potima Bay,34.840900013164536,32.38697
5b906738738e26000199c73b,Helios Beach,34.81201583485952,32.39261
640b9c0ab6d769172094c9f1,Sandy Beach,34.8121,32.3943
640b9c04de81d54a0f0deb94,Paphos,34.7101,32.4792
640a7111e920306892a98a6a,Pissouri Bay,34.6492,32.7202
5b90692725d37d00013ef583,Curium Bay,34.66020893342363,32.88398
640b9bf88284fedb49b14116,Akrotri,34.5927,32.935
640b9c21b6d7691b3f94cf40,Lady's Mile Beach,34.6144,33.0057
640a711845190508e0a862b7,Malindi Beach,34.7119,33.1654
640b9c1645190533b9e049f1,Governor Beach,34.7158,33.2736
640a711e4eb3757687a00f31,Softades Beach,34.8087518,33.53644
640a7125451905733ea865a4,Queen Victoria,34.9619713,33.66214
640a712b99dd44136a0ee8f7,Fig Tree Bay,35.0124,34.0587
640a713245190579c1a86914,Polis,35.043532,32.40507
603ff0d8e531e58d088fec14,Marsa Matrouh,31.37548,27.17863
603fecd5c487aa27ce6387f1,Alexandria,31.21054,29.91045
640b9989451905f40fdfb311,Dionisiou Beach,40.2455,23.2616
584204214e65fad6a7709c5c,Kalamitsi,39.99,23.992
584204214e65fad6a7709c5a,Sikias Beach,40.04,23.988
66478fdd3e2040ac09e0aa81,Stomio,39.869567197289356,22.73636
584204214e65fad6a7709c58,Chorefto,39.454,23.122
584204214e65fad6a7709c59,Aegios loannis,39.418,23.161
584204214e65fad6a7709c5b,Llias Madraki (Skiathos),39.167,23.405
640b99399b6fabe7c02f857e,Aghios Isidhoros,38.5036,25.8572
584204214e65fad6a7709c5d,Sarti Beach,40.089,23.98
640b98b74519051171df84b9,Messakti Beach - Ikaria,37.6304,26.0974
640b99c54878ebabc91d74b5,Drakano Beach,37.6764876,26.36115
640b99344878eb2fb81d5449,Mourtia,37.7624,27.0286
640b98bd606c455e59f3761b,Irakleidis,36.7775,27.0003
6080ad91bc46aba4727beebb,Paradise Beach,36.759026,27.00567
640b98c9b6d76959c9940b31,Agios Theologis,36.7227,26.9185
640b98c34878ebd9ed1d3be3,Theologos,36.7133,26.9204
640b98cf4878ebb2861d3e43,Tetarti,36.4076,25.4865
6418e3fd970272069e880029,Kameiros,36.2884,27.8502
6418e4099a43c41eb8388786,Zephyros,36.4285,28.2353
6418e403e072f883f30319d6,Gennadi,36.0189,27.9291
6418e3ef970272ed3887fd74,Prasonisi West,35.89,27.7703
6418e3f793265b030f18f5ac,Prasonisi East,35.8863,27.7717
640b98f8451905184edf92a3,Karteradou,36.4204,25.472
640b99044519056ff9df94cf,Mesa Pigadia,36.3544,25.376
640b98f24519055442df915e,Vourvoulos,36.4445,25.4487
640b98ec4519058f33df8f6d,Ammoudi,36.4608,25.3696
640b9983606c459be2f3a1c3,Kampaki,36.7769,25.2697
640b991b606c45176df389fa,Kampanes,36.7694,24.4138
640b99469b6fab8e9e2f87f8,Pyrgaki,36.9769,25.4008
640b9940606c45fa4df3928c,Agios Georgios,37.0988,25.3752
640b9970e92030915ee0d4c1,Lia,37.4451,25.4364
640b99b98284fe074cb0bc11,Lyhnaftia Beach,37.556,25.2299
640b994cde81d57cf10d4ac9,Kalantos Beach,36.9369,25.472
640b990ab6d769babc94188c,Kambia,36.3481,25.3874
640b990f8284fe05b3b09627,Red Beach,36.3485,25.3947
640b9915de81d5d93b0d3e7c,Almyra,36.3477,25.4143
640b98d5b6d769e445940d88,Blixada,36.3385,25.4323
640b997de92030d472e0d766,Agios Georgios,36.3379,25.4518
640b98fede81d512030d397a,Perissa,36.3536,25.4735
640b9952e920301121e0cd2f,Psili Ammos,37.0134,25.5684
640b99b39b6fabe1da2fa0d5,Galaxies,37.5317,25.1683
640b998f4878eb7a001d68d3,Azolimnos beach,37.4103,24.9639
640b99954519050999dfb5b4,Vari beach,37.3899,24.9456
640b999b4878eb0dff1d6b76,Komito beach,37.3767,24.8825
640b99a19b6fabade52f9c84,Kokkina beach,37.3952,24.8704
640b99a7b6d769f1d0943c7c,Lotos beach,37.4432,24.8958
640b99adde81d565870d610d,Delphini beach,37.4583,24.8982
640b9976b6d769377994319a,Neimporio,37.8403,24.9343
640b99bf606c4522adf3aed9,Gialia Beach,37.8528612,24.93943
640b98dade81d59d460d31d4,Big Ateni,37.9101,24.839
640b98e145190576fedf8d0b,Small Ateni,37.9122,24.8366
640b9959de81d5ed030d4daa,Nerodafni,36.7679,24.4123
640b992d4878eba4151d527e,Lagkada,36.7249,24.4419
640b9927e920305fe7e0c31e,Agios Ioannis,36.6778,24.3318
640b995ede81d51cbd0d4f09,Agia Eirini Beach,36.748,24.4867
640b99648284fe443ab0a911,Tria Pigadia,36.73,24.5364
640b996ade81d51d510d5215,Agkali,36.7171,24.5407
640b98e64878eb49321d42ed,Fyriplaka,36.6664,24.4647
640b9921606c45addbf38b48,Tsigkrado,36.6619,24.4693
640b97d98284fe4d1db05303,Archaia,40.7783,23.8193
640b97d29b6fab4cac2f37d4,The Bridge,40.7268,24.1007
640b97b4606c451a2ef33ca9,Asprovalta,40.7573,23.7491
640b980ee92030b56ee0873a,Olympiada Rivermouth,40.5968394,23.78227
640b97cc4878ebf2ed1d0658,Madonna Beach - Limnos,39.9906,25.2481
640b97df8284fe4c41b0545b,Thanos Beach - Limnos,39.8384,25.0767
640b97a8b6d769102493ccb8,Merkourios,38.56,24.1717
640b97a2e92030bbb0e06f7b,Metochi,38.6539,23.9602
640b97e48284fe5c91b055bb,Liani Ammos,38.3937,24.1814
640b97aeb6d76980f393ce04,Camp,38.3812,24.2049
640b9809606c456063f34f57,Kokkino Limanaki,38.03349,24.00014
640b97bade81d551b70cf36a,Pili,38.7686,23.5912
584204214e65fad6a7709c61,Rafina,38.018,24.015
640b97ea8284fe321fb056f8,Davis Beach,37.9548,24.0104
640b97f0e92030e95ce0802d,Erotospilia,37.8935,24.033
640b98038284fe31ffb05d13,Agios Dimitrios Beach,37.8007,23.8666
609469e4fd08ec6d125e4c12,Sounio Beach,37.654135696848506,24.02424
640b97c64519053b54df504a,Agios DImitrios,37.8021,23.8571
640b97c09b6fab3a072f3352,Varkiza Beach,37.819,23.8082
584204214e65fad6a7709c5e,Vouliagmeni,37.812,23.777
640b97fde92030ff53e0830c,Faliro Reef,37.9243,23.6908
640b97f68284fe3feab059bc,Votsalakia Beach,37.9357,23.6551
584204214e65fad6a7709c60,Limani Pasa Beach,37.678,24.054
584204214e65fad6a7709c5f,Kolimpithra (Tinos),37.631,25.142
584204214e65fad6a7709c63,Leivada (Tinos),37.61,25.238
584204214e65fad6a7709c64,Abrami Beach (Naxos),37.174,25.48
601dd7024e483b0c11de447b,Livadia Beach,37.02112092086537,25.04543
584204214e65fad6a7709c65,Plakoto (Ios),36.786,25.29
584204214e65fad6a7709c66,Apollonas (Naxos),37.18,25.553
584204214e65fad6a7709c62,Armenistis (Ikiria),37.631,26.091
584204214e65fad6a7709c67,Mircos Point (Rhodes),36.384,28.021
584204214e65fad6a7709c69,Acropolis (Rhodes),36.097,28.087
640b982d4519050e08df6648,Zakros,35.0973,26.2635
640b9833606c453a86f357aa,Petras,35.1994,26.1229
640b986e4878eb94d01d28e5,Xerokampos,35.0353,26.2189
640b9827de81d50f980d0b2c,Makry Gialos,35.0393,25.9779
631bc035097cd6c416d74647,Kakos Bay,35.013797,25.84354
640b987be92030fbb7e09e65,Voulisma,35.1264,25.7444
640b9875de81d55cf30d1bbb,Almiros,35.1766,25.7102
584204214e65fad6a7709c68,Stalida Beach (Crete),35.295,25.429
640b9821606c45ffb3f3542f,Stalibu,35.2969,25.4247
640b985c8284fea2ecb06f97,Konaki Beach,35.332,25.2505
640b98569b6fab76df2f53dd,Arina Beach,35.3321,25.2377
640b9893e92030b5f5e0a3da,Fodele Beach,35.4022,24.9546
640b9887de81d55cc30d2042,Skaleta,35.3931,24.6098
6658ca5a4130b3a53c5edb1e,Rethymnon Beach,35.3679415,24.49138
584204214e65fad6a7709c6b,Preveli (Crete),35.152,24.478
631bd295d923ff43820dcd89,Trypiti,34.803758,24.12363
640b986245190568eadf719e,Kokkinos Pyrgos,35.0798,24.7398
640b9868606c453b4ef36313,Komos Beach,35.0092,24.7577
640b9881451905f2a4df78c4,Keratokampos,34.9984,25.3783
631bc1104850ab9472dea06c,Korfos Beach,34.830556,24.11169
631bd486d923ffd69c0e371f,Sarakiniko,34.860072,24.11016
631bd346097cd682c6db6c57,Potamos,34.859144,24.06077
631bbee3097cd6d863d6fa5b,Agios Paulos,35.220008,24.00048
640b981ade81d57fea0d0897,Palaiochora,35.2324,23.6773
640b98ac9b6fab51782f6660,Kountoura Beach,35.231944,23.62322
640b989a606c4547b8f36e54,Afrotolaki,35.3965,23.5511
640b9839606c4570dff3590a,Sfinari,35.4217,23.5659
640b98b18284fe442eb0821d,Falasarna Reef,35.477583,23.56378
640b98144519050862df6157,Falasarna,35.4925,23.58
640b98a08284fe34ffb07ea2,Mavros Molos,35.5002,23.6486
640b984a4878eb66c01d2182,Kissamos,35.5009,23.6581
640b98a6e920308c6fe0a7ad,Telonio Beach,35.4992,23.6676
640b983fb6d769749593ed3a,Platanias,35.5217,23.9134
640b98454878eb865f1d2052,Strofi,35.5157,23.9452
640b988d8284fe5955b07a9a,Hrissi Akti,35.5119,23.9889
640b98504878eb00541d22b2,Kalyves,35.4522,24.178
640b9aea9b6fab6c022fe965,Koral,42.219,27.7886
584204214e65fad6a7709bca,Erikli,41.883,28.056
584204214e65fad6a7709bcf,Kastro,41.63,28.104
584204214e65fad6a7709bce,Karaburun,41.342,28.689
584204214e65fad6a7709bd2,Suma Beach,41.248,29.005
584204214e65fad6a7709bd1,Kilyos,41.247,29.033
640b9ae5e920303e74e12a5c,Demirciköy,41.2507,29.0652
640b9adfe920306237e12900,Rumeli Feneri,41.2347,29.1149
640b9af04878eb31e21dbb3f,Riva Gelara,41.2308,29.2571
640b9b4a8284fe6615b11979,Sofular Plaji,41.18595,29.50189
640b9a974878eb53be1da6e9,Şile Merkez,41.1749,29.626
584204214e65fad6a7709bd0,Şile Resort,41.17238176144663,29.63361
584204214e65fad6a7709bd4,Woodyville,41.157,29.73
663a1d7ba33539681f01cfad,Ağva,41.139111,29.84994
584204214e65fad6a7709bd5,Sarisu,41.14,30.151
584204214e65fad6a7709bd3,Erba,41.152,30.195
584204214e65fad6a7709bd6,Kumcagiz,41.16,30.22
640b9b3e8284fe4b10b1167c,Babalı Surf Beach,41.19129,30.34344
640b9b26b6d76927e294956a,Koseagzi Plaji,41.328291,31.46674
640b9b209b6fab004f2ff5ec,İliksu Plaji,41.408516,31.68263
640b9a9dde81d5a7570d993b,Bockoi Plaji,41.7811,32.4827
640b9b1ab6d769f19694928c,Göçkündemirci Koyu Plaji,41.806889,32.54359
640b9b148284fe43eeb10cda,Karaman Koyu Plaji,41.828965,32.61997
640b9b0e9b6fabbaf32ff1af,Hisarköy,41.829685,32.66587
640b9aa48284fe3bd3b0f31b,Zeus Temple,41.848,32.7544
640b9aaade81d52c280d9c0e,Rivermouth Jetties,41.8944,32.9776
640b9aaf606c4589e7f3e70e,Yali Restaurant,41.9743,33.2042
640b9b2c606c4597dcf4037b,Kayran Yali,42.000698,33.53084
640b9b029b6fab57062fee7a,Haciveli Sağ,41.981361,34.04592
640b9b089b6fab9a762fefd9,Haciveli Sol,41.98164,34.04717
640b9afcde81d5c67c0daeb0,Ginolu Kalesi,41.966499,34.16288
640b9ab5de81d503f10d9ebb,Hardi,41.9579,34.194
640b9b32606c4579c9f404dc,Oymayaka,41.946856,34.27895
640b9b38606c45c488f40643,Turkeli,41.945164,34.32896
640b9abb9b6fab6ef82fde4c,Hotel Turistik,41.9513,34.3388
640b9ac14519051756dffb40,Oluza River,41.9471,34.6938
640b9ac7451905d9a5dffc99,Boat Shed,42.0443,34.9242
640b9acc9b6fab56d02fe22f,Farmland,42.0761,34.9494
640b9b74e92030a5cde14b72,Sinop Beach,42.040971,35.04591
640b9ad2b6d7691fed94822f,Kalesi Plaji,42.0264,35.1418
640b9af68284fe152eb1059f,Sarimsak Cayi,41.834734,35.16003
640b9ad94878eb2d7e1db61c,Gerze,41.8189,35.1738
640b9b6eb6d769383f94a63b,Samsun Center,41.43062,36.16695
632250d0731b42549f30b876,Atakent,41.3813082,36.21925
640b9b688284fe9209b1208d,Unye Center,41.145007,37.26917
640b9b50b6d769b1eb949f0b,Vona Beach Break,41.113836,37.70691
640b9b57e92030f25de14489,The Cliff Break,41.113008,37.77633
640b9b5db6d7695da394a1ea,Uncle Kepa's River,41.021003,37.83209
640b9b634878ebe5611dd5b6,The Jetty,41.018165,37.84662
640b9b448284fe8614b117d5,Ordu Center Beach,40.983899,37.93983
640a75924eb375ed73a109af,BNZ River,41.666611,41.68039
640a7598606c454650bd4f6a,Bomby,41.544501,41.55956
640a75d54eb3750259a11840,Single Fin,42.381694,41.5765
640a75a7451905be84a96396,Maroubra,42.021435,41.74874
640a759fb6d76922615de638,Old Man,42.013417,41.75278
640a75adb6d76970f65de96b,Longboard Home,42.000762,41.75644
640a758ab6d76991e95de17c,Gold Fish,41.663472,41.6765
640a75db99dd4489a40ff12d,Archi,42.391564,41.55747
640a75ceb6d7699cde5df037,Kulevi Rivermouth,42.278662,41.63141
640a75c8b6d769a4dd5deed6,R-Land Left,42.216036,41.62647
640a75e2606c450b28bd5fd8,Mason Island,42.20642,41.62381
640a75c14eb37510f6a1142e,R-Land Right,42.180296,41.63628
640a75b499dd44685f0fe85a,Patara,42.14229,41.65641
640a75ba4eb3752820a1129d,Black Stone,42.135038,41.65808
6418e2199a43c4a694381f4b,Radostniy,44.8217,34.8697
6418e17aa34c333fb61860bf,Dzhemete,44.9585,37.2701
6418e1506478f07617fa81ca,Southern Cape, Anapa,44.8904,37.2972
6418e1a26478f0761ffa92d2,Shirokaya Balka,44.6521,37.6987
64bbfa4b3905c6063f71e34e,Tolstyy Mys,44.5534596,38.05019
65d325c199f732b3e3cbfdcb,Lermontovo,44.27984,38.78983
6418e1686478f0440cfa86aa,Ashe,43.9565,39.2625
6418e463e072f80f6e032dd4,Riviera,43.583645,39.71225
6014939ae1ecbd51c15ae37c,Hosta Rica,43.5064,39.8685
66479365b0e801bd79124a09,Kelasuri River,42.9717517,41.06316
640b9c27de81d5e6b20df340,Arcadia Beach,46.42947,30.76859
640b9c2d4878ebb0a61e03e3,Kometa,46.287694,30.66208
5ad64675fc50f9001b5a0ddb,Zoom Beach,44.191282796402604,28.658288413699097
5ad77e9580ba01001a9ce87f,CC,44.184605863393294,28.65713091739076
640b9a10de81d569880d77ef,Modern,44.1812442,28.65689
640b9a094878eb60091d8444,Boeme,44.0494696,28.64485
640b9a16b6d769a5d9945689,Tuzla,43.9970689,28.66385
640b9a1cb6d769d9b194582f,Vama,43.7536285,28.57564
584204214e65fad6a7709bd7,Shabla,43.545,28.605
584204214e65fad6a7709bd8,Kabakum Beach,43.253,28.03
6418e06a9a43c4b71637c4a5,Sunny Day,43.2405,28.0176
6418e070e072f80b8102583a,Obzor,42.8215,27.8845
6418e63d93265b54d2197578,Sveti Vlas,42.7074562,27.74108
6418e6376478f067b6fb8f73,Nessebar,42.657671,27.72054
6418e6316478f07e33fb8e4b,Cental beach,42.4204202,27.69487
584204214e65fad6a7709bd9,Harmani,42.416,27.701
584204214e65fad6a7709bdb,Arkutino,42.335,27.732
6418e64297027260f4887f3a,Perla Beach,42.2877032,27.7554
6418e648970272a947888077,Primorsko North Beach,42.2712541,27.75797
6418e64e6478f0a6c1fb944c,Lozenec Central Beach,42.2125634,27.8049
584204214e65fad6a7709bda,Melnitza,42.165,27.859
584204214e65fad6a7709bdd,Varvara,42.119,27.909
584204214e65fad6a7709bdc,Ahtony,42.103,27.942
584204214e65fad6a7709bf3,Silister,42.023,28.012
6418e1bb6478f03dbafa9a19,Torre Spaccata,39.9535,16.6241
6418e1c8e072f804a102a20f,Sabbiedoro,39.6622,15.8334
6418e61197027229d088743c,Sparvasile,39.5724559,15.86746
6418e44a93265b0a29190798,La Tana Di Ciccio,39.459845,15.98245
6418df5ba34c33443817f23e,Ponte Di Ferro,39.3918,16.0175
6418e1c2e072f8e59402a0e8,Lo Scoglio,39.3074,16.0458
6418e1a9a34c33c07e186af7,Pilune,38.77,16.5709
6418df7a9a43c438d1379436,Condojanni,38.1869,16.2226
6418e21297027262f0879854,Torre del Golfo,38.9108,16.8198
6418df749a43c4ef473792fa,Spartivento,37.9637,16.1048
6418df6e9702727e26870ccc,Le Serre,37.9215,16.041
6418df686478f0fc13fa1eee,Bova,37.9259,15.887
6418df559a43c4609f378c86,Giardini Naxos,37.8206,15.2766
6418e05ea34c33b3ec18262f,Torre Archirafi,37.7139,15.2181
6418e26c9a43c4df1938317a,Spiaggia della Plaia,37.4841,15.0868
584204204e65fad6a7709b43,Playa di Catania,37.471,15.087
6425acc70f32d5a9ecdad90e,Catania - La Playa,37.4432,15.0891
6418e162e072f85c81028ad8,Baia Arcile,37.2918,15.1599
6418e04097027260cc87364e,Siracusa South,37.0047,15.2868
584204204e65fad6a7709b42,Morghella,36.701,15.125
6418e1566478f0305afa82eb,Portopalo,36.6669,15.1291
6418e15b9a43c4c68237f685,Il Reef Dell'Isola,36.6511,15.0759
6418df4f93265bfdf717fd89,Marina di Modica,36.7105,14.7755
663a28aa033aad1ea08228a7,Serfatari,36.8153698,14.46339
584204204e65fad6a7709b41,Ponente,37.232,13.621
6418df49e072f8938f021cf3,Il Reef,37.2643,13.5756
584204204e65fad6a7709b3f,Backdoor,37.333,13.393
6418df436478f05e46fa16bf,San Marco, Ciminiera,37.4967,13.0453
6418df3d6478f056a7fa1564,Faro,37.5655,12.6629
584204204e65fad6a7709b40,Cornino,38.09,12.656
584204204e65fad6a7709b3e,San Vito,38.177,12.738
584204204e65fad6a7709b3c,Praiola,38.155,13.08
584204204e65fad6a7709b3d,Ciammarita,38.087,13.076
584204204e65fad6a7709b3a,Magaggiari,38.161,13.084
584204204e65fad6a7709b3b,Torre Muzzard,38.181,13.162
584204204e65fad6a7709b39,Isola Delle Femmine,38.193,13.244
6418df38a34c333b3617eaf4,Il Moletto,38.2058,13.3288
6418df329a43c4101d378563,Santa Lucia,38.0329,14.0023
6418df2b9a43c475e83783f9,Lungomare,38.0371,14.0175
6418e23093265bafb31895c3,Qbajiar Bay,36.076,14.2501
6418e23793265b2c8818974d,Ramla Beach,36.0664,14.2739
6418e1f9e072f8bdbf02ac2f,Golden Bay,35.9338,14.3437
6418e3d1e072f8d164030ec9,Marleys,35.9398,14.4567
6418e20093265b16f7188b80,Ghajn Tuffieha,35.929,14.344
6418e46fe072f80e6303304a,St. Thomas Bay,35.8521585,14.56632
604657865b6cc5fec671baa2,Jendouba,37.02928,8.91171
60465a4112a30912652f211e,Ras Angela,37.335383,9.76127
6042a4c1c06215785b6efc87,Bizerte,37.319778,9.86717
604296a24d813d5413b40d37,Carthage,36.85188,10.33313
6042a99894b7833586125f08,Kelibia,36.834083,11.11738
6042a1b46a41dee3a05fef47,Hammamet,36.370183,10.54588
584204204e65fad6a7709b57,Pipeline,38.88,8.86
584204204e65fad6a7709b56,Chia,38.894,8.88
584204204e65fad6a7709b58,Su Guventeddu,38.995,9.019
584204204e65fad6a7709b59,Poetto,39.204,9.167
584204204e65fad6a7709b5a,Racca Point,39.205,9.313
584204204e65fad6a7709b5b,Solanas,39.133,9.428
631cf03cfa170f2fa7eb4c73,Campulongu,39.1311044,9.50548
584204204e65fad6a7709b5e,Sant Elmo,39.207,9.565
584204204e65fad6a7709b5c,Porto Guinco,39.122,9.526
6418df1f9a43c4202d378084,L'Ideale,42.0768,11.8067
6425ac8f4d6ed3d34e3d812d,La Roccetta,42.03777471594811,11.8795
6425d0ca3660c09ce533b766,Il Bunker,42.039,11.9133
6425acabedb0ba538ede5181,Ristorante,42.0375,11.9161
6425d0f63660c0853d33c13a,Il Castello,42.0167,11.9561
6418e51e6478f0568afb5086,Fregene,41.8491809,12.19196
6418ded793265b858517e2ab,Lido di Ostia,41.7256,12.278
6418dedd9a43c443903771a8,Lido Garda,41.4651,12.6088
584204204e65fad6a7709b25,Marinaretti,41.451,12.637
6418df136478f0c616fa0bc2,La Chiesa,41.4557,12.6675
6425acc5d92ecc25518bb923,Lido di Latino,41.4079,12.8653
6418df1a6478f05ff7fa0d35,Artiglieria,41.3037,13.0053
584204204e65fad6a7709b26,Saporetti,41.248,13.035
6418e249e072f8fe0002bca9,Carrubo,41.2307,13.0964
584204204e65fad6a7709b24,Sant Agostino,41.209,13.564
6418e4519a43c4156e3896c4,Ischitella lido,40.951726,13.99929
6425aca998e5236f2c0913d1,Serapo,41.2094,13.5644
584204214e65fad6a7709c7b,Capolinea,40.81,14.044
6418e2ac6478f05778facbc1,Spiaggia Miliscola,40.7886,14.0701
6418e3b3e072f84a5803091e,Mappatella,40.7524,14.4396
584204204e65fad6a7709b29,Salerno Rivermouth,40.672,14.773
6418dee26478f012d5fa0061,Le Dune,40.061,15.279
6418dee96478f06f03fa0242,Il Parcheggio,40.3219,17.4526
6418df616478f09f6cfa1d5e,La Spiaggia,38.7143,15.9712
6418e42093265b035418fe8e,Porto Cesareo,40.2584,17.9008
6418def56478f0a2f9fa04fe,Torre Dell'Orso,40.374,18.3161
6418defb9a43c424bf3778a9,Capo Torre Cavallo,40.64,18.0187
6418e3766478f01fbbfaf5ed,San Giorgio,40.2381,18.4574
6418e37c6478f06fb7faf750,Frassanito,40.2343,18.4607
6418deef93265b9e7e17e86f,Alimini - La Nave,40.2125,18.4599
6418e3839a43c40652386b51,Alimini,40.2061,18.4579
6418e41aa34c33d2e218ef80,Otranto,40.1482,18.4874
6418e23de072f808f602ba7d,Rosamarina di Ostuni,40.8002,17.5528
6418e41493265b39a118fc55,Torre Canne,40.8362,17.4684
6418df0293265b598317ec47,Tombino,41.1123,16.9203
6418df07a34c33c87617dfea,Melma,41.217,16.5753
6418e29c93265be19518ab40,Spiaggia del Castello,41.8581,16.1765
6418df0d6478f0ebc7fa0a6f,Trabucco,42.0068,14.9975
6418e3ea9702724bb087fc3a,Levi Point,45.3484,13.5394
6418e3e4a34c33ecc518e3e6,Barbariga,44.9851,13.7366
6418e3de97027249ba87f987,Camp Kazela,44.8032,13.9665
6418e1b5a34c33c3f9186ed4,La Rotonda,44.03868,10.02803
6425ac3598e5237b6e08f9bb,Il Trabucco,43.9771,10.1398
6418e47697027227fb881939,Tirrenia,43.6359123,10.2862
584204204e65fad6a7709b17,Bagni Fiume,43.52,10.311
6418e174e072f826a8028e59,Livorno - Tre Ponti,43.5092,10.3177
6418deb393265b077d17dba2,Livorno - Il Sale,43.4983,10.3197
584204204e65fad6a7709b18,Garagola,43.398,10.425
584204204e65fad6a7709b19,Lillatro,43.382,10.429
6418e618a34c3374f2195e6e,Andalù,43.2916324,10.50021
6425d0574d6ed3bb36458eac,Baratti - Il Dado,42.9937,10.5002
6418e4bd93265b7e0a192024,Capo Bianco,42.820303,10.31333
584204204e65fad6a7709b1a,Scaglieri,42.804,10.268
6418e4ce6478f06a4bfb401a,Biodola Beach,42.802304,10.26859
584204204e65fad6a7709b20,Procchio,42.79,10.244
584204204e65fad6a7709b1b,Marina di Campo,42.748,10.24
584204204e65fad6a7709b1d,Secchetto,42.736,10.177
6418e4c393265ba8fb192198,Fonza Beach,42.745031,10.26455
6425d07f98e523405e112470,Elba Island - Laconella,42.7587,10.3007
584204204e65fad6a7709b1c,Lacona,42.7594594,10.30242
6418deb96478f076b7f9f84c,Elba Island - Margidore,42.7568,10.3116
584204204e65fad6a7709b1e,Margidore,42.761,10.325
6418e4c89a43c4d50538b127,Mola Beach,42.760145,10.38605
6418e4dae072f81bb503485e,Rocchette,42.775972,10.80123
630cf9ab84b5065c383c7804,Castiglione della Pescaia,42.7605502,10.88261
6418e50693265bed051930f9,Fiumara,42.73493,10.95441
6418e4ff9a43c410d738bc81,Cala Di Forno,42.616917,11.08699
630cfcda06b6e20e8977dbaa,Talamone,42.5633245,11.15255
6418e4f9a34c332bbb191edd,Gianella,42.441593,11.16997
6418e4e1e072f880150349cf,La Cantoniera,42.437401,11.12965
6418e4e697027288ca883270,Lunga,42.382107,11.19575
6418e4ed9702729b6c8833e9,Playa del Can - Tenda Gialla,42.413685,11.22172
584204204e65fad6a7709b21,Ansedonia,42.416,11.279
6418e4f393265b6c72192c65,Frigidaire Capalbio,42.405728,11.31512
584204204e65fad6a7709b22,Porto,42.037,11.875
6418e4a593265bbe60191b35,Cala Della Morte,42.039419377301236,11.90386
584204204e65fad6a7709b1f,Pura Vida,42.038112260523604,11.91536
584204204e65fad6a7709b23,Banzai,42.03598588721268,11.91875
6418e49f9a43c467cc38a7dc,Baietta,42.03651,11.9199
6418e49993265bf44a1918bd,Campo Di Mare,41.97072,12.03641
6418e4b1a34c33843a190f47,Torre Flavia,41.9567876,12.04837
6418e4ab6478f0068afb37f6,Mini Beach,41.9255699,12.12538
6418e61d9a43c4534b38fbbf,Campo Ascolano,41.6442075,12.43022
6425d09ed92ecc52b593cbce,Paloma Beach,42.5402,14.1342
6418dec5e072f823c0020014,Acquabella,42.3309,14.4252
6418e2b8e072f8f22002d396,Giulianova Beach,42.7694,13.9616
6418debfa34c3357ee17d0c6,Il Pescatore,42.9602,13.8854
6425ac670f32d5eb91dac406,Il Molo,43.5654,13.5904
6418e2fc9702726c8087c8a0,Bersaglio,43.6347,13.3905
6418e45d970272060288141a,Rotonda,43.9229,12.90771
6418e20c9702721ce1879739,Malindi,43.9726,12.7213
6418e3d76478f05db8fb0ace,Bunker JFK,44.0692,12.5849
6418e4d593265b0263192617,Mamai Beach,42.905248,10.77683
6418deca93265bc67c17e013,Vasto,42.1751,14.7065
6076fc6f4cf4465879f3fa52,Alaia Bay,46.213967,7.32153
661f8a126bcd18507a7cf32c,Palm Spring Surf Club Wave Park,33.80438,-116.49
5842041f4e65fad6a7708832,Oceanside Harbor,33.202391008646,-117.39475
5842041f4e65fad6a7708835,Oceanside Pier,33.19477795952803,-117.38667
5c0060aa12c17b0001a78941,The Rock, Oceanside,33.18195637639852,-117.37531
5bec658795aee10001fadde5,Forster St. Oceanside,33.18234248788874,-117.37465
5bfdced06871990001fd9ff2,Carlsbad State Beach,33.15384008522178,-117.35137
5842041f4e65fad6a7708837,Tamarack,33.14948100706,-117.35029
5842041f4e65fad6a77088a6,Terra Mar Point,33.130343587871906,-117.33668
5842041f4e65fad6a77088a5,Ponto,33.08685865930869,-117.31532
5842041f4e65fad6a770889f,Grandview,33.07541383424675,-117.3105
5842041f4e65fad6a77088a0,Beacons,33.065267421296596,-117.30577
5842041f4e65fad6a77088a3,Moonlight State Beach,33.04694255008896,-117.29966
5842041f4e65fad6a77088b7,D Street,33.04569760260221,-117.2994
5842041f4e65fad6a77088b4,Swami's,33.0341859796287,-117.29552
5c008f5313603c0001df5318,Pipes,33.02460487110932,-117.28879
5842041f4e65fad6a77088b8,San Elijo State Beach,33.02090944350196,-117.28535
5842041f4e65fad6a77088b1,Cardiff Reef,33.01352178146273,-117.28219
584204214e65fad6a7709d1a,George's,33.01113550717834,-117.28030529109606
5842041f4e65fad6a77088b3,Seaside Reef,33.00211185876003,-117.2811
640a3f73b6d7693ba4512a83,Solana Beach,32.98938,-117.2743
5842041f4e65fad6a77088b0,Del Mar Rivermouth,32.97527261243354,-117.2721061331305
5842041f4e65fad6a77088af,Del Mar,32.95916304183685,-117.26963
584204204e65fad6a7709994,Torrey Pines State Beach,32.92712825415561,-117.2599
5842041f4e65fad6a770883b,Blacks,32.877231,-117.25303
5842041f4e65fad6a7708839,Scripps,32.865777159358856,-117.25614
5842041f4e65fad6a77088cc,La Jolla Shores,32.863,-117.257
5842041f4e65fad6a770883d,Horseshoe,32.838278,-117.28396
5842041f4e65fad6a770883c,Windansea,32.82978974229765,-117.28162
5842041f4e65fad6a770883a,Birdrock,32.813094,-117.27381
5842041f4e65fad6a77088c2,PB Point,32.80662846492798,-117.26888
5842041f4e65fad6a77088c4,Old Man's at Tourmaline,32.8060476681448,-117.26479
5842041f4e65fad6a7708841,Pacific Beach,32.796582258728826,-117.25779
5842041f4e65fad6a7708842,Mission Beach,32.776636,-117.25514
5842041f4e65fad6a770883f,Ocean Beach,32.75034717673179,-117.25337
5842041f4e65fad6a7708840,Sunset Cliffs,32.73693,-117.25718
5842041f4e65fad6a77088ce,Coronado Beach,32.67443657790586,-117.17421
5842041f4e65fad6a7708844,Imperial Beach Pier,32.577195519016,-117.13475
5842041f4e65fad6a77088cb,Tijuana Slough,32.557056711256,-117.1327445020322
584204204e65fad6a77091ae,San Antonio Del Mar - Norte,32.427,-117.099
5842041f4e65fad6a7708e1b,Baja Malibu,32.417,-117.096
584204204e65fad6a77091af,Marisol North Point,32.398,-117.092
584204204e65fad6a77091c1,Marisol,32.388,-117.092
5842041f4e65fad6a7708bd0,Rosarito Beach,32.3489432986615,-117.0668043482785
584204204e65fad6a77091bf,Renes,32.312,-117.049
584204204e65fad6a77091b5,Alfonsos,32.274,-117.038
584204204e65fad6a77091b2,Popotla,32.268,-117.026
584204204e65fad6a77091b7,Calafia,32.2668,-117.018
584204204e65fad6a77091bb,El Morro Point (K37.5),32.264,-117.008
584204204e65fad6a77091ba,K-38,32.264,-117.006
5b578907a1c728001be14897,Teresa's,32.261622511860814,-116.99352753021833
584204204e65fad6a77091b9,Las Gaviotas,32.252029281646706,-116.96304
584204204e65fad6a77091be,Rauls,32.24587,-116.943
584204204e65fad6a77091bc,K-40,32.241,-116.939
584204204e65fad6a77091c0,Cantamar Settlement,32.22679,-116.92318
584204204e65fad6a77091bd,Primo Tapia,32.22162,-116.92079
584204204e65fad6a77091b8,Rancho Santini,32.21868,-116.91963
584204204e65fad6a77091c3,Dunes,32.21327,-116.91697
584204204e65fad6a77091cb,Halfway House,32.17528,-116.90718
584204204e65fad6a77091c2,Campo Lopez (K-55),32.1568671586803,-116.89901053905487
584204204e65fad6a77091c4,K-55 1/2,32.153,-116.898
584204204e65fad6a77091c6,Alisitos,32.13267,-116.8886
584204204e65fad6a77091c7,La Fonda,32.118,-116.888
584204204e65fad6a77091c5,La Mision,32.105,-116.89
584204204e65fad6a77091ca,La Salina,32.058,-116.887
584204204e65fad6a77091c9,El Paso,32.036,-116.887
584204204e65fad6a77091c8,Mirador Viewpoint,31.986,-116.854
5842041f4e65fad6a7708bd2,Salsipuedes,31.97636522717259,-116.7913888957552
5842041f4e65fad6a7708bc9,San Miguel,31.90016519474307,-116.73117
5842041f4e65fad6a7708bc7,Todos Santos / Killers,31.80902927937703,-116.8081979700041
584204204e65fad6a77091cd,3Ms,31.878,-116.69
584204204e65fad6a77091ce,Cannery Stacks,31.869,-116.682
584204204e65fad6a77091cf,California Trailer Park,31.859,-116.669
584204204e65fad6a77091d0,Ensenada Beaches,31.778,-116.632
584204204e65fad6a77091d1,Boca De Santo Tomas,31.561,-116.693
584204204e65fad6a77091d3,Lighthouse (Punta San Jose),31.462,-116.589
584204204e65fad6a77091d5,Punta Cabras,31.329,-116.457
584204204e65fad6a77091d6,K-181,31.297,-116.418
584204204e65fad6a77091da,San Antonio Del Mar - Sur,31.037,-116.345
584204204e65fad6a77091db,Cabo Colonet,30.953,-116.268
584204204e65fad6a77091d9,Quatro Casas,30.857,-116.177
584204204e65fad6a77091dc,Roberts Left,30.855,-116.15
584204204e65fad6a77091de,Punta San Jacinto (Shipwrecks),30.843,-116.136
584204204e65fad6a77091dd,Rincon De Baja,30.827,-116.116
584204204e65fad6a77091e0,Camalu,30.813,-116.087
584204204e65fad6a77091df,Playa San Ramon,30.734,-116.053
584204204e65fad6a77091e1,Playa Santa Maria,30.326,-115.854
584204204e65fad6a77091e2,Cielito Lindo,30.293,-115.833
584204204e65fad6a77091e3,El Socorro,30.2,-115.812
584204204e65fad6a77091e5,Casas,30.143,-115.818
584204204e65fad6a77091f7,Punta Baja,29.941,-115.817
584204204e65fad6a77091f9,Punta San Antonio,29.744,-115.706
584204204e65fad6a77091fb,Punta San Carlos,29.602,-115.5
584204204e65fad6a77091fc,Punta Canoas,29.42,-115.178
584204204e65fad6a77091fd,Punta Blanca,29.089,-114.703
584204204e65fad6a7709202,Punta Cono,28.957,-114.585
584204204e65fad6a7709215,Punta Maria,28.912,-114.529
584204204e65fad6a7709201,El Cardon,28.9,-114.464
584204204e65fad6a7709214,Punta Ositos,28.872,-114.44
584204204e65fad6a7709213,Punta Negra,28.801,-114.391
640a43dfb6d769dfda5246ca,Punta Sta Rosalillita,28.6539,-114.245
640a43e1e9203087f19eec32,Open Doors,27.8629,-115.159
584204204e65fad6a770920b,Bahia Tortugas (Turtle Bay),27.658,-114.899
584204204e65fad6a770920c,Asuncion Bay,27.146,-114.268
584204204e65fad6a770920e,San Hipolito,26.967,-114.009
584204204e65fad6a770920f,La Bocana,26.8,-113.74
640a43e4606c45246bb1b27a,Punta Abreojos,26.7489,-113.527
640a43e6e920303e539eed3b,Scorpion Bay,26.2424,-112.475
584204204e65fad6a7709220,Punta San Gregorio,26.072,-112.314
584204204e65fad6a7709222,Las Barrancas,26.014,-112.23
584204204e65fad6a7709223,San Jorge,25.683,-112.105
584204204e65fad6a7709216,La Laguna,26.278,-112.592
584204204e65fad6a7709212,Punta Santo Domingo,26.324,-112.69
584204204e65fad6a7709211,Campo Renes,26.793,-113.484
584204204e65fad6a7709207,Playa Elefante (Isla Cedros),28.165,-115.327
584204204e65fad6a7709200,Puerto San Andres,28.691,-114.299
584204204e65fad6a77091fe,Punta Rosarito,28.572,-114.171
584204204e65fad6a7709205,The Wall,28.551,-114.15
584204204e65fad6a7709206,Millers Landing,28.484,-114.078
584204204e65fad6a770922b,Mag Bay,24.756,-112.237
640a43e8e92030007f9eedd4,Punta Conejo,24.0718,-111.0069
584204204e65fad6a770922c,Punta Marquez,23.956,-110.883
584204204e65fad6a770922d,Beachbreak,23.82,-110.739
584204204e65fad6a770922e,La Bocana,23.568,-110.35
584204204e65fad6a7709230,Playa San Pedro,23.535,-110.313
584204204e65fad6a770922f,La Pastora,23.486545,-110.27395
584204204e65fad6a7709255,Punta Colorados,23.579,-109.513
584204204e65fad6a7709253,Punta Arenas,23.546,-109.469
584204204e65fad6a7709254,El Rincon,23.484,-109.452
584204204e65fad6a7709251,Cabo Pulmo,23.417,-109.422
584204204e65fad6a7709250,Los Frailes,23.379,-109.42
584204204e65fad6a770924e,Frailes South,23.342,-109.423
584204204e65fad6a770924f,Boca Del Solado,23.254,-109.436
5842041f4e65fad6a7708bdc,Nine Palms,23.174,-109.476
5842041f4e65fad6a7708bdb,Shipwreck,23.12,-109.527
5842041f4e65fad6a7708bd9,The Estuary,23.04871261564847,-109.6800082320905
5842041f4e65fad6a7708bda,Zippers,23.029,-109.714
5842041f4e65fad6a7708bd7,The Rock,23.02506324659338,-109.71456
5842041f4e65fad6a7708bd4,Old Man's,23.02358192684975,-109.7147
584204204e65fad6a770924d,Costa Azul,23.015,-109.717
584204204e65fad6a770924c,Punta Pamilla,23.008,-109.712
584204204e65fad6a770924a,Bahia Chileno,22.945,-109.804
5842041f4e65fad6a7708bd8,Monuments,22.896,-109.869
584204204e65fad6a770924b,Backwash,22.892,-109.895
584204204e65fad6a7709249,Migrino,23.099,-110.117
584204204e65fad6a7709248,Punta Gasparino,23.179,-110.145
5842041f4e65fad6a7708bd5,Cerritos,23.32877869857464,-110.17715
640a43e3b6d7691fdc5247be,Pescadero,23.347,-110.19
5842041f4e65fad6a7708bd6,San Pedrito,23.36729303816202,-110.20268
5842041f4e65fad6a7708bd3,Las Palmas,23.39151658553801,-110.2143952234506
5842041f4e65fad6a7708bd1,Todos Santos,23.44473573026049,-110.2452466338192
584204204e65fad6a77091b6,Tiburon,23.802,-106.885
584204204e65fad6a77091ad,Milagro,23.796,-106.884
584204204e65fad6a77091b0,Patoles,23.742,-106.847
584204204e65fad6a77091b1,Dimas Rivermouth,23.701,-106.812
584204204e65fad6a77091b3,Las Labradas,23.613,-106.767
584204204e65fad6a77091b4,Marmols,23.492,-106.629
584204204e65fad6a77091d2,Rucos,23.441,-106.583
584204204e65fad6a77091d4,Playa Bruja,23.303,-106.492
584204204e65fad6a77091d7,Las Flores,23.241,-106.454
584204204e65fad6a77091d8,El Camaron,23.238,-106.448
584204204e65fad6a77091e6,Valentinos,23.237,-106.445
584204204e65fad6a77091e7,Los Pinos,23.209,-106.429
584204204e65fad6a77091e4,Stone Island,23.183,-106.4
584204204e65fad6a77091ea,Barron,23.089,-106.295
640a43f44eb375764d95728b,Playa Novillero,22.377712,-105.68586
584204204e65fad6a77091e8,San Blas,21.526,-105.284
584204204e65fad6a77091ec,Stoners Point,21.512,-105.262
584204204e65fad6a77091e9,Las Islitas,21.516,-105.246
584204204e65fad6a77091eb,Aticama,21.484,-105.202
584204204e65fad6a77091ed,Santa Cruz,21.437,-105.203
584204204e65fad6a77091ef,Punta Custodio,21.346,-105.247
584204204e65fad6a77091f0,Chacala,21.188,-105.23
5842041f4e65fad6a7708c46,Costa Azul,20.934,-105.401
584204204e65fad6a77091ee,San Pancho,20.9,-105.418
640a43f14eb3751245957173,Ostiones,20.8822,-105.43
584204204e65fad6a77091fa,Sayulita,20.872,-105.441
62df04768bfd3f6ad4a214b0,Palmitas,20.76578,-105.49733
584204204e65fad6a7709abf,El Anclote,20.769,-105.521
584204204e65fad6a77091f2,La Lancha,20.762,-105.494
584204204e65fad6a77091f1,Banderas,20.749,-105.46
584204204e65fad6a77099db,El Faro,20.756,-105.531
584204204e65fad6a7709ac2,Bahia TW,20.76,-105.538
640a43ef4519054f8a9dc4c2,Hammerhead,21.3155,-106.226
584204204e65fad6a77091f3,Punta Burros,20.7505,-105.454
584204204e65fad6a7709ac3,Veneros,20.747,-105.436
640a43f2b6d76989f0524beb,Quimixto,20.505694,-105.36347
584204204e65fad6a77091f6,Playa Tenacatita,19.289,-104.855
584204204e65fad6a77091f4,Boca de Iguanas,19.305,-104.819
584204204e65fad6a77091f8,Barra de Navidad,19.19975,-104.68577
584204204e65fad6a77091f5,Manzanillo,19.118,-104.368
584204204e65fad6a7709208,Cuyutlan,18.915,-104.073
584204204e65fad6a770920a,El Paraiso,18.873,-103.99
584204204e65fad6a770920d,Pascuales,18.853,-103.962
584204204e65fad6a7709210,Boca de Apisa,18.683,-103.736
584204204e65fad6a7709217,Las Brisas,18.556,-103.642
640a43f64519055f519dc6c7,La Ticla,18.50806,-103.58618
584204204e65fad6a770921a,La Ticla,18.453,-103.56
584204204e65fad6a7709219,Huahua,18.175,-103.011
584204204e65fad6a770921c,Rio Nexpa,18.082,-102.792
584204204e65fad6a770921b,Playa Azul,17.977,-102.349
640a43fc99dd4467c1044936,El Faro (Guerrero),17.9215,-102.167
640a43f84eb375d89895737f,Petacalco,17.9803,-102.101
584204204e65fad6a770921d,The Ranch,17.914,-101.871
584204204e65fad6a770921e,La Saladita,17.836,-101.774
584204204e65fad6a770921f,Troncones,17.794,-101.749
584204204e65fad6a7709225,Playa Linda,17.695,-101.649
584204204e65fad6a7709224,Ixtapa,17.659,-101.609
584204204e65fad6a7709226,Las Gatas,17.622,-101.554
584204204e65fad6a7709228,Barra de Potosi,17.539,-101.45
584204204e65fad6a7709227,La Barrita,17.411,-101.185
584204204e65fad6a770922a,Puerto Vincante Guerro,17.269,-101.053
640a43f9b6d769a6d9524db6,Playa Boca Chica,17.1309,-100.65
640a43fb606c451beab1b89d,Acapulco,16.82,-99.9
584204204e65fad6a7709231,Papanoa,17.172,-100.766
584204204e65fad6a7709232,Playa Michigan,17.136,-100.675
584204204e65fad6a7709233,Playa Paraiso,17.077,-100.481
584204204e65fad6a7709234,Revolcadero,16.789,-99.826
584204204e65fad6a7709235,Barra Vieja,16.686,-99.627
584204204e65fad6a7709236,Chacahua,15.967,-97.674
584204204e65fad6a7709237,Cerro Hermosa,15.967,-97.536
584204204e65fad6a7709238,Carrizalillo,15.859,-97.0796
5842041f4e65fad6a7708b43,Puerto Escondido,15.846,-97.06
584204204e65fad6a770923c,La Punta,15.831,-97.048
584204204e65fad6a770923b,Barra de Colotepec,15.806,-97.019
584204204e65fad6a770923d,San Agustinillo,15.663,-96.55
584204204e65fad6a770923e,Zipolite,15.657,-96.53
584204204e65fad6a770923f,Rio de Coyula,15.685,-96.304
584204204e65fad6a7709240,San Agustin,15.684,-96.246
584204204e65fad6a7709241,Playa La Bocana,15.786,-96.054
584204204e65fad6a7709242,Playa El Mojon,15.806,-96.006
584204204e65fad6a7709244,Barra de la Cruz,15.821,-95.964
584204204e65fad6a7709402,La Jolla,15.876,-95.776
584204204e65fad6a7709243,Punta Chipehua,16.03655,-95.37461
628d03773a8e980f6f978d0d,Chivo,16.1078,-95.2745
60baa263ff579bfa5b89da12,Punta Conejo,16.1355,-95.2465
584204204e65fad6a7709245,Salina Cruz,16.137,-95.246
640a43fe99dd444fa90449af,La Ventosa,16.1865,-95.1482
584204204e65fad6a7709246,Puerto Madero,14.719,-92.428
584204204e65fad6a7709a5c,Ocos,14.503,-92.195
584204204e65fad6a7709a5b,Tilapa,14.494,-92.181
584204204e65fad6a7709a5a,Champerico,14.292,-91.918
584204204e65fad6a7709a59,Tulate,14.154,-91.723
584204204e65fad6a7709a56,Tecojate,13.95,-91.309
584204204e65fad6a7709a57,Sipacate,13.92,-91.146
584204204e65fad6a7709a58,El Paredon,13.913,-91.078
584204204e65fad6a7709a55,La Barrita,13.911,-90.956
584204204e65fad6a7709a54,Chulamar,13.913,-90.873
584204204e65fad6a7709a53,Puerto San Jose,13.914,-90.822
640a35ff606c4540edae234f,La Barra - Likin,13.9224,-90.772
584204204e65fad6a7709a52,Iztapa,13.925,-90.721
584204204e65fad6a7709a51,Monterrico,13.887,-90.483
584204204e65fad6a7709a50,Hawaii,13.863,-90.412
584204204e65fad6a7709a4f,Las Lisas,13.792,-90.248
584204204e65fad6a7709a4e,Barra de la Gabina,13.778,-90.213
584204214e65fad6a7709baa,Negrei,13.571,-89.836
584204214e65fad6a7709ba7,Cristo de Salinitas,13.551,-89.83
640a35a7606c45bdb5ae0cac,Los Cobanos,13.522,-89.8072
584204214e65fad6a7709ba3,Mizata,13.509,-89.597
584204214e65fad6a7709ba5,K-61/K-59,13.498,-89.473
5b0d8b67141337001a93d553,El Zonte,13.493318846328453,-89.43945
640a35a9e92030a34c9b47cc,El Palmarcito,13.4937,-89.4217
5842041f4e65fad6a7708bb0,Sunzal,13.49167561061991,-89.39
5842041f4e65fad6a7708bae,La Bocana,13.491596878346689,-89.38104
5842041f4e65fad6a7708baf,Playa Conchalio,13.48324995683858,-89.33946
5842041f4e65fad6a7708bad,Punta Roca,13.47973883183636,-89.32655
5842041f4e65fad6a7708bab,La Paz,13.4834740494465,-89.32376
5842041f4e65fad6a7708bac,El Muelle (Pier),13.48587874937462,-89.31998852531258
61afff90ba143b9372b95325,La Libertad,13.48488,-89.30597
5842041f4e65fad6a7708baa,Playa San Diego,13.47971255664387,-89.28610104791234
584204214e65fad6a7709bac,El Pimental,13.378,-89.084
640a35abb6d769c69d4ea140,Costa Del Sol,13.342959,-89.00659
640a35b1e9203052629b49ea,El Espino,13.17,-88.3048
584204214e65fad6a7709ba6,Punta Mango,13.164,-88.19
640a35afe9203057999b4974,La Ventana,13.1667,-88.1554
640a35b5e92030b3a69b4b12,El Majague,13.1633,-88.1288
584204214e65fad6a7709ba4,Toro de Oro,13.165,-88.125
640a35ac451905728c9a1c19,La Vaca,13.1662,-88.121
5842041f4e65fad6a7708dbe,Las Flores,13.167687,-88.11798
640a35ae606c451f52ae0e64,El Cuco,13.1694,-88.1013
640a35b2b6d769913e4ea340,Las Tunas,13.1577,-87.9733
640a35b4b6d7696a454ea3a0,Lucky Mans,13.2168,-87.8744
61d4d151c15a827dc58364ec,The Boom,12.6269,-87.3561
5a1dfd8b1d8788001b7966de,Las Penitas,12.371379957548557,-87.0373
640a43cd606c459a04b1ac93,Salinas Grandes,12.2586,-86.8623
5842041f4e65fad6a7708f1c,Puerto Sandino,12.188,-86.777
584204204e65fad6a7709147,Miramar,12.167,-86.766
584204204e65fad6a7709983,Shack's/Shifty's,12.16393,-86.76109
640a43cfb6d7693b75524287,Playa Hermosa,12.1093,-86.7369
584204204e65fad6a7709078,El Transito,12.052,-86.708
640a43cb606c459db4b1ac24,Gran Pacifica,11.9109,-86.6201
640a43cae920302e619ee5fb,Montelimar,11.8022,-86.5214
640a43c84eb37527969566d6,Masachapa,11.7791,-86.522
640a43c74eb37578f3956659,Pochomil,11.7523,-86.4871
640a43c5e920302ce89ee49f,Casares,11.6467,-86.3606
640a43b745190506a99db6db,El Penon,11.5219,-86.1777
584204204e65fad6a770910c,El Astillero,11.518,-86.176
5842041f4e65fad6a7708db9,Popoyo,11.45905865759882,-86.11157
5842041f4e65fad6a7708dba,Popoyo Outer Reef,11.4549634092428,-86.11003
5842041f4e65fad6a7708b44,Santana,11.44175,-86.08519
640a43b945190504b29db760,Playa Rosada,11.4339,-86.0844
584204204e65fad6a7709146,Panga Drops,11.408,-86.056
5842041f4e65fad6a7708e1e,Colorados,11.40551,-86.05062
5842041f4e65fad6a7708dbd,Manzanillo,11.36577672698044,-86.0100626486595
5842041f4e65fad6a7708dc0,Playa Maderas,11.28249124556028,-85.90446
640a43bb99dd44a7db043898,El Remanso,11.2205,-85.8494
640a43bc4eb375bdff956392,Tamarind,11.2147,-85.8469
640a43c3e920305a089ee41b,Playa Hermosa,11.203,-85.837
640a43be451905ebdf9db8ad,El Yanke,11.1809,-85.8183
640a43c0e9203045249ee30a,El Coco,11.158,-85.8042
640a43c1e9203002b49ee3a0,Sally Ann's,11.1314,-85.8003
5842041f4e65fad6a7708b98,Ollie's Point,10.85099440725964,-85.79981
5842041f4e65fad6a7708b99,Witches Rock,10.79489213393012,-85.68066
640a2d4d99dd442613fe861d,Playa Del Coco,10.551,-85.6998
640a2d49451905cb45980348,Playa Flamingo,10.4342,-85.7931
640a2d4bb6d769126e4c8973,Playa Brasilito,10.4102,-85.7978
5842041f4e65fad6a7708c36,Playa Grande,10.33328,-85.85069
5842041f4e65fad6a7708b9b,Tamarindo,10.29970304257365,-85.84398
5842041f4e65fad6a7708c38,Playa Langosta,10.28630556,-85.85228
5842041f4e65fad6a7708c35,Avellanas,10.22975,-85.84058
584204204e65fad6a770913a,Playa Negra,10.194,-85.832
640a2d48b6d769ca6a4c88c2,Marbella,10.0896,-85.7845
584204204e65fad6a770913c,Ostional,9.995,-85.705
584204204e65fad6a7709328,Nosara,9.969,-85.6838
5842041f4e65fad6a7708b4d,Guiones,9.94,-85.668
584204204e65fad6a770913d,Samara,9.868,-85.536
584204204e65fad6a7709140,Camaronal,9.861,-85.444
640a2d34606c45fa26abef97,Playa Coyote,9.7751,-85.2684
640a2d33e920306f95992a42,Playa Caletas,9.7538,-85.2599
640a2d2e4eb37546ff8fa917,Playa Manzanillo,9.6984,-85.2118
645c2ffad729fd6b3b156571,Playa Hermosa,9.6656,-85.1926
5842041f4e65fad6a7708e31,Santa Teresa,9.65372,-85.18252
640a2d2899dd446363fe7bdc,Playa Carmen,9.6198,-85.15
640a2d2b451905d83497fa63,Cedros,9.6297,-85.0763
640a2d2c4eb37540a08fa892,Punta Barigona,9.5926,-85.1469
5842041f4e65fad6a7708b9a,Mal Pais,9.570222044864844,-85.14184
640a2d3699dd441e92fe8075,Tivives,9.8701,-84.7038
640a2d2999dd445fd8fe7c46,Roca Loca,9.5895,-84.6265
640a2d2fb6d769a3d04c81ad,Boca Tusubres,9.5347,-84.5551
5842041f4e65fad6a7708ba5,Boca Barranca,9.958235741436532,-84.74122
5842041f4e65fad6a7708ba6,Caldera Jetty,9.922484732656224,-84.7158981889118
5842041f4e65fad6a7708ba3,Playa Escondida,9.661646156842439,-84.67316883195207
5842041f4e65fad6a7708ba4,Herradura,9.635059578319176,-84.66159522794959
5842041f4e65fad6a7708ba1,Playa Jaco,9.616940559391795,-84.63541
5842041f4e65fad6a7708b50,Playa Hermosa North,9.576,-84.608
5842041f4e65fad6a7708b4e,Playa Hermosa South,9.56516,-84.59148
5842041f4e65fad6a7708b4f,Playa Esterillos,9.526305556,-84.48822
5842041f4e65fad6a7708b9d,Bejuco,9.48278011021258,-84.28883991550364
640a2d5999dd443c90fe895c,Boca Damas,9.4538,-84.219
640a2d5be92030354599346e,Quepos Jetty,9.4253,-84.1704
640a2d5d45190529379807f2,Quepos Bombie,9.421,-84.1724
640a2d66b6d7693f714c8ff2,Playitas,9.3964,-84.1643
5842041f4e65fad6a7708c37,Manuel Antonio,9.389333333,-84.15386111
640a2d674519052523980a6b,Playa El Rey,9.3732,-84.1079
5842041f4e65fad6a7708b9c,Dominical,9.250593929300813,-83.86522
640a2d5fb6d76990ef4c8e21,Dominicalito,9.2317,-83.842
640a2d6099dd44b5c4fe8af0,Punta Dominical,9.2242,-83.8429
6340b24fb390fd7a54896e42,Playa Hermosa - Osa Peninsula,9.192654,-83.78063
640a2d6245190544f298091e,Playa Chaman (Punta Uvita),9.14841,-83.73886
640a2d65b6d76930c64c8f86,Playa Ballena,9.1106,-83.6958
640a2d63b6d769fe594c8f27,Rio Sierpe Rivermouth,8.7841,-83.6524
640a2d6999dd4496c8fe8cfb,Drake's Bay,8.7194,-83.6496
662b93ffa22a47ec9cf40c64,Punta Río Claro,8.67855181506715,-83.71332
640a2d58606c4587baabf890,Rio Claro Rivermouth,8.4638,-83.595
640a4490b6d76936b85273a7,Puerto Armuelles,8.28,-82.84
640a448f4519056e179dedef,La Barqueta,8.3001,-82.5737
640a44a4606c457237b1e3e9,Las Lajas,8.1668,-81.8667
640a4495b6d769207d5274b9,P-Land,8.0814,-81.8179
640a44974eb3752d77959b69,Nestles,8.0803,-81.8147
640a449245190559199dee9b,The Point,8.0376,-81.7203
640a4494606c450caab1df75,Sandbar,8.0156,-81.6931
640a448d45190537119ded89,Emily's (Morro Negrito),8.0447,-81.7141
5842041f4e65fad6a7708dc8,Punta Rocas,7.635,-81.28
645eb633d296ec83323b094d,Santa Catalina - La Punta,7.6235,-81.2577
640a44a645190515bc9df420,El Estero,7.6252,-81.2464
640a44a04519054e259df247,Playa Reina,7.6208,-80.9958
640a449d45190518779df153,Playa Morrillo,7.4888,-80.9539
635809c81b01aa3667eab22d,CORTO CIRCUITO,7.241944,-80.56444
635bab0234068e1d3e441249,Cambutal El Frente,7.248645,-80.49926
635a9b217ba3134fc227b4b1,Guanico,7.27153,-80.41806
584204204e65fad6a7709681,Playa Venao,7.42407,-80.19587
640a449a99dd44d74d047169,Playa Pedasi,7.53,-80.0031
640a44b94eb375479c95a4da,Rio Mar,8.4313,-80.0054
584204214e65fad6a7709bfb,Punta Palmar,8.466,-79.954
640a44b34eb3750af795a31f,Hawaiisito,8.4812,-79.9459
640a44b54eb375f4dc95a3bd,San Carlos Point,8.4841,-79.9434
640a44b899dd44a8ab047997,Esmeralda,8.4944,-79.9316
584204214e65fad6a7709bfd,Punta Teta,8.504,-79.917
640a44bbb6d769b332527ea6,Rinconsito,8.5078,-79.9131
640a44bde920307e099f240e,Rocky Point,8.5229,-79.8915
640a44bf99dd445e04047b80,Playa Serena,8.5488,-79.8673
640a44c199dd44c464047c0c,Playa Malibú,8.5566,-79.8399
5a1dd7159caa98001b09d0e2,Playa Caracol,8.573213105719432,-79.79482
640a44a9e920307abc9f1ed4,Las Bóvedas,8.9493,-79.5312
640a44a7606c457b96b1e4df,Panamá La Vieja (Panama City),9.0022,-79.4833
640a44ad99dd440e5e0476cf,Nuevo Loco,9.0071,-79.4765
640a44c399dd44321b047c79,Isla Grande,9.6335,-79.5546
640a44abe92030f1739f1f6d,La Zurda,9.0051,-79.4848
640a44b199dd4423870477bd,Mojon Beach,9.006,-79.4677
640a44c699dd4490eb047d5c,Mazzeti Break,8.951111,-79.13361
63595826a370a82c4f6d625d,Chepillo,8.94314,-79.13139
640a44c44eb375ae0a95a77c,Main Break,8.941944,-79.12722
635bad43a370a82293e0b4bb,Jaqué,7.513152012111972,-78.16126
584204204e65fad6a7709a3f,El Valle,6.109,-77.4437
584204204e65fad6a7709a3d,Derecha Secreta,5.9773,-77.3519
584204204e65fad6a7709a3c,Jurubida,5.8401,-77.2843
584204204e65fad6a7709a3a,Tribuga,5.7897,-77.2647
584204204e65fad6a7709a3b,Nuqui,5.715,-77.2771
584204204e65fad6a7709a39,El Cantil,5.6289,-77.4171
584204204e65fad6a7709a38,Terco,5.6231,-77.4284
584204204e65fad6a7709a37,Termales,5.6068,-77.4446
584204204e65fad6a7709a35,El Mystic,5.6033,-77.477
584204204e65fad6a7709a36,Pico De Loro,5.5706,-77.5079
640a2831e92030f98797ef07,Punta Brava,5.5684,-77.507
640a2828606c4555d5aab1b4,Amargal,5.5675,-77.5077
584204204e65fad6a7709a33,Juan Tornillo,5.5429,-77.5116
640a2827b6d76998864b45de,Pela Pela,5.5679,-77.5082
584204204e65fad6a7709a34,Pico Pico,5.5682,-77.5092
584204204e65fad6a7709a32,Secret Right,5.4753,-77.5225
640a282f4eb3755a358e6f49,Playa de Choncho,4.0671,-77.4685
640a2829451905507f96bfb5,Playa la Concepción,3.9847,-77.4013
640a282e606c453227aab316,Playa Chuchero,3.9417,-77.3139
640a282bb6d76959414b46fe,Playa Santa Ana,3.7142,-77.195
640a281d451905e45c96bcc6,Playa Candelaria,3.1167,-77.6
640a2811b6d769fcd14b40f1,Playa La Playeta,8.4186,-77.1404
640a281c4eb37545848e6aaa,Playa Culebra,9.1966,-76.1735
640a2825b6d769a0674b4573,Playa La Playona,8.4457,-77.198
640a28214eb3752c118e6be8,Playa del Viento,9.3451,-76.0487
584204204e65fad6a7709a3e,Colpipe,9.3946,-76.17
640a280d99dd442ddafd3c0e,Playa de Los Venados,9.3715,-75.9847
640a281a99dd44e5aefd3ecb,Playa Grande,9.4055,-75.7622
640a2817606c45d76faaae01,Playa Linda,10.3688,-75.5803
584204204e65fad6a7709a40,Hilton,10.3939,-75.5574
584204204e65fad6a7709a43,Las Velas,10.3993,-75.5645
584204204e65fad6a7709a41,Castillogrande,10.3944,-75.5554
640a280c99dd449782fd3ba9,Balneario de Marbella,10.4364,-75.5369
640a2823451905811796bdf3,Playa Veronica,10.8796,-75.0844
640a2808b6d7694f454b3ea7,Playa del Ferú,10.8833,-75.0833
640a2813e9203097ec97e822,Playa de Pradomar,10.9784,-74.9975
584204204e65fad6a7709a45,El Muelle,10.9904,-74.9641
584204204e65fad6a7709a44,Pradomar,11.0047,-74.9552
584204204e65fad6a7709a46,El Bolsillo,11.0085,-74.9522
640a44c899dd445c60047ddf,Mahalo,11.019568,-74.9367
584204204e65fad6a7709a48,Punta Roca,11.0465,-74.9188
640a280f606c456db2aaac30,Playa de Los Pescadores,11.0459,-74.8742
640a280a99dd4418fbfd3b11,Playón de Cachimbero,11.0091,-74.2625
640a28144eb3754d098e68d0,Playa La Cueva,11.2283,-74.2264
640a2816b6d76909104b4235,Playa del Centro,11.2443,-74.2149
640a281fe9203076ce97ead9,Playa Brava,11.3198,-74.0983
584204204e65fad6a7709a47,Arrecifes,11.3164,-73.9476
584204204e65fad6a7709a49,Los Naranjos,11.2983,-73.8928
584204204e65fad6a7709a4a,Casa Grande,11.2751,-73.8553
584204204e65fad6a7709a4b,Buritaca,11.265,-73.7715
584204204e65fad6a7709a4c,Viento Fresco,11.2591,-73.7082
584204204e65fad6a7709a4d,Las Gaviotas,11.2605,-73.567
640a28194eb375f8dd8e6a05,Playa de Los Holandeses,11.2584,-73.4539
640a2addb6d7699cac4beeb6,El Barco,12.1737,-69.9666
640a2ad9b6d769786a4bed36,Punta Tumatey,12.1728,-69.9363
640a2adee920300f3a9895d5,Bahía Tiraya,12.0694,-69.8573
640a2ad499dd44d4f3fde7e0,Cazon (Buchuaco),11.9943,-69.8205
640a2ad74eb37503f28f13ff,Las Cabanas,11.9562,-69.8162
640a2ae499dd448351fdec7f,Playa de Los Camarones,11.4715,-69.7397
640a2adb4519054bf3976715,Muaco,11.4772,-69.5643
640a2ae3451905d54f976968,Playa Los Muertos,10.9,-68.2442
640a2ae1451905c7419768e0,Playa Mayorquina,10.875,-68.2289
640a2ae04eb3751f688f16e8,Playa Azul,10.8462,-68.2291
640a2ad3b6d76963ee4beb6b,El Peaje,10.6028,-68.2529
584204214e65fad6a7709be3,Palma Sola,10.508,-68.173
584204214e65fad6a7709be4,Playa Los Cuatro,10.49,-68.139
584204214e65fad6a7709bf6,El Palito,10.483,-68.111
584204214e65fad6a7709bdf,La Playita,10.493,-68.082
640a2ae8606c456844ab5d1b,Playa Waikiki,10.4831915,-68.03818
584204214e65fad6a7709be2,Cumboto,10.483,-68.038
640a2ae6b6d769497a4bf10f,Playa Blanca,10.4759,-68.0272
584204214e65fad6a7709be0,Macuro,10.498,-68.01
584204214e65fad6a7709be1,La Bocaina,10.464,-67.931
5e2f1e7658bfc90c844ce612,Patanemo,10.453848204519536,-67.92313
584204214e65fad6a7709be5,Cuyagua,10.498,-67.689
584204214e65fad6a7709be6,El Malecon,10.51,-67.606
640a2acf99dd440f56fde66c,Puerto Colombia,10.5078,-67.5982
584204214e65fad6a7709be7,Mamo,10.612,-66.994
584204214e65fad6a7709be8,Playita,10.608,-66.976
640a2acb4519058cd0976295,Tanaguarena,10.6216,-66.8512
584204214e65fad6a7709be9,Los Cocos,10.618,-66.838
584204214e65fad6a7709bea,Puerto Azul,10.613,-66.785
640a2aca4eb37525758f10e2,Carmen D'Uria,10.6159,-66.7674
584204214e65fad6a7709beb,Otro Pais,10.624,-66.721
584204214e65fad6a7709bef,Playa Pantaleta,10.626,-66.715
640a2ac845190545599761f1,Fido Point,10.6223,-66.7048
584204214e65fad6a7709bec,Punta Care,10.624,-66.693
584204214e65fad6a7709bed,Anare,10.625,-66.652
584204214e65fad6a7709bee,Los Caracas,10.629,-66.575
640a2ad1606c45e76aab56d3,Todasana,10.628448,-66.46004
584204214e65fad6a7709bf0,La Sabana,10.616,-66.374
584204214e65fad6a7709bf1,Chirimena,10.623,-66.195
640a2acde9203076b09890ee,Ciudad Balneario Higuerote,10.503,-66.1107
640a2aa9e920302316988801,Punta Arena,10.9776,-64.407
640a2abf45190580e1975f8b,Playa de Mula,11.0488,-64.3472
640a2abd99dd444d39fde233,Playa de La Pared,11.0635,-64.313
584204214e65fad6a7709bf2,Funeral Point,11.07,-64.299
640a2abc99dd4438d7fde1ce,Playa de El Tunal,11.0664,-64.2976
640a2aa4606c459798ab4bd2,Taguantar,11.0704,-63.9907
640a2aac45190515c8975a96,Playa Caribe,11.1056,-63.9804
640a2ac0e92030ad61988dc6,Playa Caribe,11.1099,-63.9709
584204214e65fad6a7709bf4,Puerto Cruz,11.127,-63.923
584204214e65fad6a7709bf5,Playa el Agua,11.151,-63.868
640a2aa3b6d76910714bdf83,Rocky Point (Margarita),11.1381,-63.854
640a2ac5b6d76948184be811,Playa El Humo,11.1661,-63.8776
584204214e65fad6a7709bf7,Parguito,11.129,-63.845
640a2ac2b6d769c2f84be73a,Playa de El Tirano,11.1124,-63.8442
640a2ac3606c45fd32ab5375,Playa El Cardón,11.1061,-63.841
584204214e65fad6a7709bf9,Guacuco,11.055,-63.815
640a2aa6b6d76941794be058,Las Salinas,11.0115,-63.786
640a2aa74eb375e7c78f0861,Punta Ballena,10.9944,-63.7817
640a2ac64eb3756d4b8f101e,Playa El Ángel,10.9849,-63.8038
640a2ab2e920302be3988a4b,Playa Chacopata,10.6904,-63.8148
640a2ab099dd441504fddf02,Playa de Guaranache,10.6345,-64.1853
640a2ab5e9203006b6988b20,Playa de San Luis,10.4337,-64.2043
640a2aae4eb37571398f09f0,Chacopata,10.6899,-63.7935
640a2aaf4519056bc2975b64,La Esmeralda,10.6498,-63.4851
640a2aa1606c4536baab4b01,Playa Copey,10.6708,-63.2542
640a2ab84eb375eabd8f0c6d,Playa Curumiche,10.7117,-63.0434
640a2ab4451905ac44975c9d,Playa de Plata,10.7382,-62.755
640a2ab7b6d769e8e44be478,Playa Los Cocos,10.7414,-62.6709
640a2aba45190545a4975e29,Playa de Ladera,10.6468,-64.2479
584204214e65fad6a7709bfa,Punta de Guiria,10.681,-63.323
584204214e65fad6a7709c00,Carupano,10.675,-63.236
584204214e65fad6a7709bf8,Chagurama,10.715,-63.047
584204214e65fad6a7709bfc,Pui Pui,10.701,-62.968
640a44d3451905e0099dff02,Las Cuevas, Trinidad,10.7815,-61.3928
640a44d1451905c86f9dfe9f,Blanchisseuse,10.7972,-61.3013
640a44ce4eb3759dd995a9cb,Grande Riviere,10.8289,-61.0496
5842041f4e65fad6a7708c7d,Sans Souci Bay,10.839254,-61.00207
5842041f4e65fad6a7708c7c,Balandra Bay,10.717707,-60.98962
640a44cb606c45cd13b1ed40,Toco Depot,10.8335,-60.9498
5842041f4e65fad6a7708c7b,Salybia Bay,10.83550342228099,-60.920248032489326
5842041f4e65fad6a7708c79,Airports,11.15033417501753,-60.84783
640a44d599dd4431d60480c5,Sunset Rights,11.162,-60.8411
640a44d699dd4453d204812e,Sunset Left,11.1702,-60.8425
584204214e65fad6a7709bb8,Mount Irvine,11.197,-60.797
640a44d0451905b3079dfe35,Crazy's,11.2237,-60.6003
640a44ccb6d7697dd15282cd,South Coast,11.2087,-60.5978
584204214e65fad6a7709ccc,Cherry Hill,12.062,-61.757
584204214e65fad6a7709cb2,Prickly Bay,11.989,-61.762
640a5addb6d769631157e30d,Georgetown River mouth,13.291111,-61.11544
640a5ad84eb37560339b0835,Georgetown Playing Field,13.278861,-61.11653
63769529d3a2055646821420,Ship In Bay,13.187528,-61.13856
640a5acf4eb375c6139b063f,3rd Reef,13.125861,-61.19553
640a5ad34eb3753fd89b0747,Middle Reef,13.128333,-61.19886
640a5acab6d769fcc357df2e,1st Reef,13.123778,-61.19419
584204204e65fad6a7709ad4,Pigeon Point,14.094,-60.96
584204204e65fad6a7709ad6,Winjammer,14.058,-60.976
640a43d5e9203034199ee8df,Tomate,14.8306,-61.2269
640a43d3b6d7691de85243b1,Ceron,14.8356,-61.224
584204204e65fad6a7709ad2,Anse couleuvre,14.845,-61.22
640a43d8b6d7698b775244f7,Bagasse,14.8741,-61.1826
640a43d7606c456fedb1af23,Charlot,14.8758,-61.1803
640a43d04eb3752b3e9568d7,Grand Riviere,14.87,-61.13
5a678aaca45918001becb02c,Basse Pointe,14.870417,-61.11517
640a43dc99dd44dbb20440c8,Le Lorrain,14.8342,-61.0537
640a43dee92030b0319eeb30,Charpencaye,14.808,-61.0131
640a43da4eb37510c0956b6e,Cocoa,14.7685,-60.9083
640a43d24eb375097295695a,Plage des Surfeurs,14.7713,-60.8997
584204204e65fad6a7709ad3,Tartane,14.771,-60.899
584204204e65fad6a7709ad1,Turd Burger's,15.557,-61.296
640a35f3b6d76907a14eb4e5,Port Louis (Grande Terre),16.4309,-61.5396
584204204e65fad6a7709ace,Le Moule,16.335,-61.354
584204204e65fad6a7709acf,Anse bertrand,16.473,-61.513
640a35f6b6d769f9694eb5a4,La Station,16.3372,-61.3395
640a35f4451905fe2a9a2f23,Alize,16.3368,-61.3296
640a35f9e9203054d69b5cb8,Anse Salabouelle,16.3086,-61.2653
640a35fc4519054c9d9a30eb,Port St-Francois,16.2478,-61.2696
640a35fde9203022219b5ddf,Le Helleux,16.2410147,-61.33802
640a35f745190539309a2fde,La Caravelle,16.2159,-61.3953
584204204e65fad6a7709ad0,Petit havre,16.208,-61.427
640a35fae92030a7dc9b5d1c,Hotel Novotel,16.2131,-61.5229
663bcc0606de809359c6f0e0,Plum Bay,18.07173,-63.14925
640a2106b6d7692429499c80,Cupecoy,18.0493,-63.1353
64bbf56132f1ce13163919c9,Mullet Bay,18.046583048046106,-63.12776
663bc6c59aa8a7511290d96a,Le Galion,18.073221,-63.01407
640a21084eb3754e9f8cc422,The Ledge,17.9083,-62.8257
663bcbc54bdd1bed10215668,Wilderness,18.12506,-63.02451
640a2109b6d76966db499d3b,Toiny,17.89605,-62.79827
5c6da0efd5b73f00019b24fe,Yacht Harbour,18.450569294228327,-64.43941
640a5ae6606c4528bdb75095,West End,18.7463,-64.4172
5842041f4e65fad6a7708c76,Josiah's Bay,18.4469967022155,-64.59065
640a5ae1b6d76983b157e40f,Loblolly Bay,18.7424,-64.3044
5bff0e9a0c205a00016ccbbd,Brewers Bay,18.446962560898154,-64.6572
5bff17b64c8f9f0001bf391e,Cane Garden Bay,18.42864198351667,-64.66175
5842041f4e65fad6a7708c78,Apple Bay,18.40133856648012,-64.68076
584204204e65fad6a770946f,Cappoons Bay/Bomba Shack,18.4,-64.68
640a5aeb99dd44c01d09e3d3,Cinnamon Bay,18.355,-64.7564
640a5afe4eb3757eda9b10c2,Reef Bay Beach,18.31723,-64.756
640a5ac6606c456125b74997,Vacuums,17.6933,-64.8917
640a5af04519053608a362fb,Denis Bay,18.3526,-64.7757
640a5af54519052729a363e7,Zoni Beach,18.3213,-65.2585
640a5af999dd44550f09e6a2,Playa Flamenco,18.328,-65.3163
640a5ac1606c4575c2b74877,Grassy Point,17.7334,-64.6113
584204214e65fad6a7709cae,Judith's Fancy Beach,17.777,-64.741
584204204e65fad6a7709adc,Fareham,17.71,-64.672
584204204e65fad6a7709ada,Turner Bay,18.326,-64.797
584204204e65fad6a7709add,John's Folly,18.316,-64.701
584204204e65fad6a7709adb,Hull Bay,18.371,-64.955
584204204e65fad6a7709ad9,Sprat Bay,18.319,-64.945
5842041f4e65fad6a7708c67,Inches,17.97138086645092,-65.96246
640a45064eb375857795b7e2,El Cocal,18.015089,-65.84623
640a44fc99dd449f5b048b6d,Cibuco,18.4909,-66.3956
640a44fe99dd4425e3048c08,Las Pasas,18.48235,-66.34164
640a450099dd448ebd048c83,Kikita Beach,18.477525,-66.26229
640a450545190504939e0ba6,El Unico,18.46887,-66.2391
640a4502606c455992b1fb92,Cochino,18.45562,-66.17992
5842041f4e65fad6a7708c62,La Ocho,18.467168313149315,-66.09311
5842041f4e65fad6a7708b47,San Juan,18.46,-66.07383728027
640a4503606c451754b1fbea,La Bomba,18.45622,-66.06358
5963b599e44a6a00137e6182,Pine Grove,18.444550463199494,-66.0129
5842041f4e65fad6a7708c63,Chatarra,18.45529355651344,-65.96670584112921
5842041f4e65fad6a7708c64,Aviones,18.452,-65.957871
5842041f4e65fad6a7708c65,Tocones,18.451764,-65.956416
5842041f4e65fad6a7708c5e,La Pared,18.377237,-65.714583
5842041f4e65fad6a7708c5d,La Selva,18.36436193914082,-65.67175850608821
5842041f4e65fad6a7708c4b,Wilderness,18.48507943247522,-67.16805
640a44f299dd4412920488b8,Ruins,18.4888,-67.16264
5842041f4e65fad6a7708c49,Surfer's Beach,18.50659587388844,-67.14095
5842041f4e65fad6a7708c51,Table Top,18.50806588732911,-67.1388404959542
5842041f4e65fad6a7708c48,Jobos,18.515,-67.077
640a44ee606c456b2fb1f654,Motones,18.5146,-67.0666
640a44ec99dd440e6c04871b,Las Dunas,18.5148,-67.0467
5842041f4e65fad6a7708c47,Middles,18.51369499135283,-67.03911
5842041f4e65fad6a7708c60,Guajataca,18.49042886903135,-66.9558167601821
5842041f4e65fad6a7708c5f,Margara,18.47587365739435,-66.73093579970327
640a44fab6d7695049528ea9,Caza y Pesca,18.48095,-66.68467
640a44f9e920302f039f32e8,Cueva del Indio,18.49048,-66.64323
640a44f7b6d7697a59528da2,Hallows,18.49144,-66.61059
5842041f4e65fad6a7708c61,Los Tubos,18.47273941014759,-66.44904622785756
5842041f4e65fad6a7708c4a,Wishing Well,18.4724771991133,-67.16964903636637
5842041f4e65fad6a7708c4c,Chambers,18.46090012303478,-67.16701
5842041f4e65fad6a7708c4d,Crash Boat,18.45734083137307,-67.16435
5842041f4e65fad6a7708c50,Bridges,18.42530999756879,-67.15604263628627
640a44f0b6d7695033528bf7,BCs,18.3897,-67.2046
5842041f4e65fad6a7708c53,Antonio's,18.37335029722464,-67.25282708189441
584204204e65fad6a77093cf,Parking Lots,18.372051653104904,-67.25393
5842041f4e65fad6a7708c54,Sandy Beach,18.3717999427746,-67.2592
5842041f4e65fad6a7708b49,Puntas,18.371581,-67.25941
5842041f4e65fad6a7708c56,Pools,18.37093775805671,-67.26124188960489
5842041f4e65fad6a7708c55,Domes,18.36591901691329,-67.27131
5842041f4e65fad6a7708c4f,Indicators,18.36085983178037,-67.27182288542944
5842041f4e65fad6a7708c58,The Point,18.359052,-67.271765
5842041f4e65fad6a7708c5c,Maria's,18.358457148373724,-67.27163
640a44f3e92030a5589f31af,Dogman's,18.35546,-67.26903
5842041f4e65fad6a7708c5a,Tres Palmas,18.35046796998277,-67.26958496140767
640a44f5606c4528f5b1f82c,Steps Beach,18.349624,-67.2643
5842041f4e65fad6a7708c59,Little Malibu,18.343578,-67.26082
640a577c606c45bc31b67de1,Puerto Plata,19.8036,-70.6885
640a577fb6d76977b1571452,La Bahia,19.7609,-70.5188
65d3400802717340836c0684,El Canal,19.78999,-70.46863
5842041f4e65fad6a7708c71,Sosua,19.760009,-70.51905
5842041f4e65fad6a7708c72,Encuentro,19.783,-70.45
65d337c7390242ecdd7e97ba,Mananero,19.73681,-70.38665
640a57834eb3756ccd9a3af3,La Preciosa,19.6804,-69.9986
667daf5caa43a40481414433,Las Canas,19.66244286319629,-70.3166
6630f540bfb5be737c5088f4,Playa de Caletón Grande,19.629981,-69.89132
65bd104f5036865a5fa32c5d,Playa Coson,19.29875,-69.59174
640a5787606c4549e2b68047,Playa Bonita,19.3159,-69.5702
61e20c2de8e6e7320d225b31,Playa Macao,18.77326360260372,-68.53553
5842041f4e65fad6a7708c77,Bahoruco,17.988754,-71.16075
5842041f4e65fad6a7708c73,Patho Beach,18.229,-70.189
5842041f4e65fad6a7708c75,El Chinchorro,18.420275,-70.01139
5842041f4e65fad6a7708c74,La Boya,18.433,-69.631
584204204e65fad6a7709ad5,Pine Cay,21.866,-72.134
640a44e0e92030113a9f2cfb,Tiburon Reefs,18.3152,-74.3972
640a44e3e920301c459f2dba,Les Anglais,18.3059,-74.2244
640a44e5e920302fa19f2e17,Mahaut Hugues,18.1122,-73.843
640a44e7606c458deab1f493,Torbeck,18.157,-73.8075
640a44ea99dd44f5d40486a8,Rainbow Beach,18.2572,-73.4726
640a44e2606c452b66b1f35b,Pistons,18.2309,-72.5422
640a44dae9203044df9f2abf,Ginsu,19.786,-72.218
640a44dcb6d769aa105286f3,Le Borgne,19.8494,-72.5253
640a44d899dd447a4b0481aa,Caracol,19.7518,-72.0161
640a398bb6d769a2504fa1dd,Runaways,18.4662,-77.3212
640a398a45190524739b1c6b,Peeny Wally's,18.2587,-76.6751
5842041f4e65fad6a7708c6e,Zoo,17.945043,-76.717493
5842041f4e65fad6a7708c6f,Copa,17.94222896363424,-76.69415558555534
640a3987606c457083af0caf,Bull Bay,17.9252,-76.6496
5842041f4e65fad6a7708c6c,Makka,17.869517,-76.582916
640a3988e920307bce9c4720,Rozelle Beach,17.8744,-76.4182
5842041f4e65fad6a7708c70,Boston Bay,18.1586,-76.3553
5842041f4e65fad6a7708c6a,Ranch,17.90850736737134,-76.18979571186617
5842041f4e65fad6a7708c6d,Lighthouse,17.927946,-76.77929
640a2d1045190580c997f382,South Sound,19.267751,-81.38994
5842041f4e65fad6a7708c66,Old Man's,23.09289784805277,-82.49361057903533
640a397799dd445cd901987d,Cabo de San Antonio,21.8156,-84.8817
640a397d4eb37503bb92c4db,Viejo y el Mar,23.0965,-82.4948
640a397ae9203005649c4366,El Cayo,23.0997,-82.4568
640a3978e920306a2a9c42cc,La Setenta (Playa 70),23.1118,-82.4425
640a397c606c4500d8af098c,El Bajo (Malecon),23.1367,-82.4084
640a3975b6d76918504f9c29,La Habana,23.1492,-82.3878
640a397f606c458645af0a5d,Playas del Este,23.1721,-82.1532
640a3984e9203044fc9c45cc,Sun Beach,23.1937,-81.1729
640a398299dd4496f5019b8b,Cayo Coco,22.5252,-78.4903
5842041f4e65fad6a7708c68,Gibara Coast,21.18269590184542,-76.17425732522923
640a3985606c456b03af0c2f,Gibara,21.1527,-76.1302
640a397499dd4465fe0197a9,Puerto Rico (Cuba),20.9723,-75.5873
640a397245190562f39b165d,Playa mar Verde,19.9643,-75.8599
640a398099dd44bebb019ae2,Windmills - Guantanamo,19.8984,-75.1182
5842041f4e65fad6a7708c6b,Cajo Babo,20.062663,-74.4972
5842041f4e65fad6a7708c69,Baracoa Coast,20.29935933410474,-74.38513580703325
640a3971606c45449baf06bb,Yumuri,20.297,-74.3459
640a4406b6d7697f52525095,Willawahs (Guana Cay),26.669,-77.1058
5842041f4e65fad6a7708e08,Indicas,26.552,-76.955096
640a4409b6d7696a75525178,Four Rocks,26.5385,-76.9561
640a440b4eb375a80a9577d8,Rush Reef,26.5133,-76.9686
584204204e65fad6a770997e,Rocky Bay,26.5103438,-76.9724322
640a440c99dd443bd5044d13,Garbanzo,26.5074,-76.9737
640a440ee920303b469ef767,Tilloo Cut,26.4979,-76.9783
640a44044519053b679dca28,Egg Island,25.4859,-76.89
640a4407e92030ad729ef5ae,Rose Island,25.0868,-77.193
640a4415606c453fcbb1beee,Whale Point Cut,25.4781,-76.6279
640a4413606c455ffcb1be6e,Holiday Beach,25.4096,-76.5543
5ff89e299bb14779fa159396,Surfer's Beach,25.3824,-76.52538
640a4410606c4540f9b1bd8b,Ledges,25.3667,-76.4851
640a4411451905ecd29dcd68,Hidden Beach,25.3387,-76.4254
640a4416451905262b9dcec1,James Point,25.3534,-76.3746
640a441999dd441d90045052,North Palmetto Point,25.1519,-76.1229
640a441899dd4438a3044fe9,Rock Sound,24.9069,-76.127
640a441b4eb37518f7957be3,Paradise Island,25.09,-77.3151
601c7f8abbb50917f33fceb1,Palmetto Pavilion,26.350618,-80.0692
5842041f4e65fad6a770887d,Deerfield Beach Pier,26.31719311695038,-80.07453
5842041f4e65fad6a7708add,Hillsboro Beach,26.29705672965111,-80.07612393274484
5842041f4e65fad6a7708adb,Hillsboro Inlet,26.25486382031396,-80.0805
5842041f4e65fad6a7708ac8,Pompano Pier,26.23467460139735,-80.0874
5842041f4e65fad6a7708ac6,Commercial Pier,26.18920557475824,-80.09224470008016
584204214e65fad6a7709d1e,NE 14th Ct.,26.145745,-80.101269
5842041f4e65fad6a7708ac5,Spoils,26.0971397396683,-80.10298876028907
5842041f4e65fad6a7708ac4,John Lloyd State Park,26.09086461141498,-80.10728410144065
5842041f4e65fad6a7708ac2,Dania Pier,26.058022412197,-80.10873562327671
5842041f4e65fad6a7708ac3,Franklin Street,26.04825428257198,-80.11153150137932
5842041f4e65fad6a7708ad9,Haulover Inlet (North Jetty),25.90147392328634,-80.12110769748688
5842041f4e65fad6a7708ad8,Haulover Inlet (South Jetty),25.897806453088073,-80.1211827993393
62ed918748de3e3e76ea08b8,Surfside,25.882368358877144,-80.11973
5842041f4e65fad6a7708ada,85th Street,25.87049374242476,-80.11828560342356
584204214e65fad6a7709d10,40th St.,25.812164,-80.12082
5842041f4e65fad6a7708ac0,30th Street,25.80407401902198,-80.1222227290161
5842041f4e65fad6a7708ad7,21st Street,25.795157990715975,-80.12527585029602
5842041f4e65fad6a7708ad6,5th Street,25.77468432731322,-80.12884045797499
5842041f4e65fad6a7708ac1,South Beach,25.76570280215999,-80.12983
5842041f4e65fad6a7708ace,Coral Cove Park,26.96418190555367,-80.07769168113562
5842041f4e65fad6a7708b77,Jupiter Inlet,26.94256932088346,-80.07057
5842041f4e65fad6a7708b6f,Civic Center,26.93134670517399,-80.06760115579169
5842041f4e65fad6a7708ae0,Corners,26.92746505629809,-80.06721138954163
5842041f4e65fad6a7708b70,Kite Beach,26.90524197396177,-80.0593609780092
5842041f4e65fad6a7708b78,Juno Pier,26.89365359499372,-80.056
5842041f4e65fad6a7708b6d,Ocean Reef Park,26.79441490392914,-80.0306161110009
5842041f4e65fad6a7708b69,Pumphouse,26.775154329102108,-80.03124833106995
5842041f4e65fad6a7708ae1,The Cove,26.76983179886943,-80.03413481937037
5842041f4e65fad6a7708879,Reef Road,26.76346795333825,-80.03607
5842041f4e65fad6a7708b6a,Sunrise,26.72114353296791,-80.03310374527736
5842041f4e65fad6a7708b6b,Breakers,26.71306786153966,-80.03222170715443
5842041f4e65fad6a7708b7b,Flagpole,26.706551543472415,-80.03280401229858
5842041f4e65fad6a7708acf,Palm Beach,26.7029496416037,-80.03184
5842041f4e65fad6a7708b6c,Charlie's Crab,26.699075556703683,-80.03263235092163
5842041f4e65fad6a7708acd,Hilton Hotel Backyard,26.62215707439298,-80.03599398392342
